[{"id":"5216","xy":{"geom":"POINT (2.73992483 47.80100992)","geo_type":"point","lat":"47.801009920000","lon":"2.739924830000","left":"2.739924830000","top":"47.801009920000","right":"2.739924830000","bottom":"47.801009920000","geohash":"u03zymgjhfh50b"},"title":"Auberge des Templiers","content_url":"https://restaurant.michelin.fr/poi-tooltip/5216/3026181","bookable":true},{"id":"11006","xy":{"geom":"POINT (6.0408964718083 43.393810587168)","geo_type":"point","lat":"43.393810587168","lon":"6.040896471808","left":"6.040896471808","top":"43.393810587168","right":"6.040896471808","bottom":"43.393810587168","geohash":"spsqc7wg70dfuq78"},"title":"Hostellerie de l'Abbaye de la Celle","content_url":"https://restaurant.michelin.fr/poi-tooltip/11006/3304186","bookable":true},{"id":"35891","xy":{"geom":"POINT (-1.87159 46.61912)","geo_type":"point","lat":"46.619120000000","lon":"-1.871590000000","left":"-1.871590000000","top":"46.619120000000","right":"-1.871590000000","bottom":"46.619120000000","geohash":"gbq9jqv0hc"},"title":"J.-M. Pérochon","content_url":"https://restaurant.michelin.fr/poi-tooltip/35891/3206191","bookable":true},{"id":"45351","xy":{"geom":"POINT (2.30295 48.87176)","geo_type":"point","lat":"48.871760000000","lon":"2.302950000000","left":"2.302950000000","top":"48.871760000000","right":"2.302950000000","bottom":"48.871760000000","geohash":"u09wh2ufws"},"title":"La Table du Lancaster","content_url":"https://restaurant.michelin.fr/poi-tooltip/45351/3295681","bookable":true},{"id":"61171","xy":{"geom":"POINT (4.88109 43.83181)","geo_type":"point","lat":"43.831810000000","lon":"4.881090000000","left":"4.881090000000","top":"43.831810000000","right":"4.881090000000","bottom":"43.831810000000","geohash":"spg3r566c9"},"title":"La Maison de Bournissac","content_url":"https://restaurant.michelin.fr/poi-tooltip/61171/3270991","bookable":true},{"id":"80371","xy":{"geom":"POINT (7.1074776 43.6949726)","geo_type":"point","lat":"43.694972600000","lon":"7.107477600000","left":"7.107477600000","top":"43.694972600000","right":"7.107477600000","bottom":"43.694972600000","geohash":"spv09drt8jr2m"},"title":"Alain Llorca","content_url":"https://restaurant.michelin.fr/poi-tooltip/80371/3303966","bookable":true},{"id":"107256","xy":{"geom":"POINT (7.11132 43.72637)","geo_type":"point","lat":"43.726370000000","lon":"7.111320000000","left":"7.111320000000","top":"43.726370000000","right":"7.111320000000","bottom":"43.726370000000","geohash":"spv0cb4k9f"},"title":"Les Bacchanales","content_url":"https://restaurant.michelin.fr/poi-tooltip/107256/3180926","bookable":true},{"id":"159351","xy":{"geom":"POINT (2.3000328 48.875888)","geo_type":"point","lat":"48.875888000000","lon":"2.300032800000","left":"2.300032800000","top":"48.875888000000","right":"2.300032800000","bottom":"48.875888000000","geohash":"u09wh3dfdtuu8"},"title":"Il Carpaccio – Le Royal Monceau Raffles Paris","content_url":"https://restaurant.michelin.fr/poi-tooltip/159351/3303506","bookable":true},{"id":"170136","xy":{"geom":"POINT (2.78906615 43.04826692)","geo_type":"point","lat":"43.048266920000","lon":"2.789066150000","left":"2.789066150000","top":"43.048266920000","right":"2.789066150000","bottom":"43.048266920000","geohash":"sp9uzkwymfw6wt"},"title":"Auberge du Vieux Puits","content_url":"https://restaurant.michelin.fr/poi-tooltip/170136/3209336","bookable":true},{"id":"200146","xy":{"geom":"POINT (2.34107 48.861425)","geo_type":"point","lat":"48.861425000000","lon":"2.341070000000","left":"2.341070000000","top":"48.861425000000","right":"2.341070000000","bottom":"48.861425000000","geohash":"u09tvqbwqvu3"},"title":"La Dame de Pic","content_url":"https://restaurant.michelin.fr/poi-tooltip/200146/3222281","bookable":true},{"id":"235071","xy":{"geom":"POINT (6.3791 43.47143)","geo_type":"point","lat":"43.471430000000","lon":"6.379100000000","left":"6.379100000000","top":"43.471430000000","right":"6.379100000000","bottom":"43.471430000000","geohash":"spsx31tp7v"},"title":"Bruno","content_url":"https://restaurant.michelin.fr/poi-tooltip/235071/3170361","bookable":true},{"id":"247996","xy":{"geom":"POINT (4.84897 45.76919)","geo_type":"point","lat":"45.769190000000","lon":"4.848970000000","left":"4.848970000000","top":"45.769190000000","right":"4.848970000000","bottom":"45.769190000000","geohash":"u05kqk4bv5"},"title":"Pierre Orsi","content_url":"https://restaurant.michelin.fr/poi-tooltip/247996/3304456","bookable":true},{"id":"248031","xy":{"geom":"POINT (5.4479 43.53486)","geo_type":"point","lat":"43.534860000000","lon":"5.447900000000","left":"5.447900000000","top":"43.534860000000","right":"5.447900000000","bottom":"43.534860000000","geohash":"spezevr0cq"},"title":"L'Esprit de la Violette","content_url":"https://restaurant.michelin.fr/poi-tooltip/248031/3020021","bookable":true},{"id":"266876","xy":{"geom":"POINT (0.73603006 49.52462479)","geo_type":"point","lat":"49.524624790000","lon":"0.736030060000","left":"0.736030060000","top":"49.524624790000","right":"0.736030060000","bottom":"49.524624790000","geohash":"u0b98xxvyepy1q"},"title":"G.a. au Manoir de Rétival","content_url":"https://restaurant.michelin.fr/poi-tooltip/266876/3304286","bookable":true},{"id":"341842","xy":{"geom":"POINT (-2.76370675 48.52017065)","geo_type":"point","lat":"48.520170650000","lon":"-2.763706750000","left":"-2.763706750000","top":"48.520170650000","right":"-2.763706750000","bottom":"48.520170650000","geohash":"gbwh10gd2zqgu7"},"title":"Aux Pesked","content_url":"https://restaurant.michelin.fr/poi-tooltip/341842/3255606","bookable":true},{"id":"349727","xy":{"geom":"POINT (0.32792 44.77342)","geo_type":"point","lat":"44.773420000000","lon":"0.327920000000","left":"0.327920000000","top":"44.773420000000","right":"0.327920000000","bottom":"44.773420000000","geohash":"spbnxqyb14"},"title":"Les Fresques","content_url":"https://restaurant.michelin.fr/poi-tooltip/349727/3233646","bookable":true},{"id":"364252","xy":{"geom":"POINT (-2.74837281 47.69618008)","geo_type":"point","lat":"47.696180080000","lon":"-2.748372810000","left":"-2.748372810000","top":"47.696180080000","right":"-2.748372810000","bottom":"47.696180080000","geohash":"gbqp36ydqk2swk"},"title":"Le Pressoir","content_url":"https://restaurant.michelin.fr/poi-tooltip/364252/3206306","bookable":true},{"id":"457497","xy":{"geom":"POINT (1.511 43.64564)","geo_type":"point","lat":"43.645640000000","lon":"1.511000000000","left":"1.511000000000","top":"43.645640000000","right":"1.511000000000","bottom":"43.645640000000","geohash":"spc063kq2b"},"title":"L'Aparté","content_url":"https://restaurant.michelin.fr/poi-tooltip/457497/3303801","bookable":true},{"id":"12861","xy":{"geom":"POINT (1.48336 48.44425)","geo_type":"point","lat":"48.444250000000","lon":"1.483360000000","left":"1.483360000000","top":"48.444250000000","right":"1.483360000000","bottom":"48.444250000000","geohash":"u0959g00hy"},"title":"Le Georges","content_url":"https://restaurant.michelin.fr/poi-tooltip/12861/2670041","bookable":true},{"id":"15646","xy":{"geom":"POINT (3.06250889 45.77031778)","geo_type":"point","lat":"45.770317780000","lon":"3.062508890000","left":"3.062508890000","top":"45.770317780000","right":"3.062508890000","bottom":"45.770317780000","geohash":"u04hmsnp3tshs3"},"title":"Radio","content_url":"https://restaurant.michelin.fr/poi-tooltip/15646/3255621","bookable":true},{"id":"67626","xy":{"geom":"POINT (4.88547 44.91786)","geo_type":"point","lat":"44.917860000000","lon":"4.885470000000","left":"4.885470000000","top":"44.917860000000","right":"4.885470000000","bottom":"44.917860000000","geohash":"spgrx1j3rx"},"title":"Pic","content_url":"https://restaurant.michelin.fr/poi-tooltip/67626/3288091","bookable":true},{"id":"68891","xy":{"geom":"POINT (4.873445 44.999575)","geo_type":"point","lat":"44.999575000000","lon":"4.873445000000","left":"4.873445000000","top":"44.999575000000","right":"4.873445000000","bottom":"44.999575000000","geohash":"spgryzutx2zb"},"title":"Michel Chabran - La Grande Table","content_url":"https://restaurant.michelin.fr/poi-tooltip/68891/3303011","bookable":true},{"id":"89356","xy":{"geom":"POINT (3.20576 50.60633)","geo_type":"point","lat":"50.606330000000","lon":"3.205760000000","left":"3.205760000000","top":"50.606330000000","right":"3.205760000000","bottom":"50.606330000000","geohash":"u0frbuw75x"},"title":"L'Arbre","content_url":"https://restaurant.michelin.fr/poi-tooltip/89356/3265991","bookable":true},{"id":"153201","xy":{"geom":"POINT (4.36669 44.65563)","geo_type":"point","lat":"44.655630000000","lon":"4.366690000000","left":"4.366690000000","top":"44.655630000000","right":"4.366690000000","bottom":"44.655630000000","geohash":"spgn5379zk"},"title":"Le Vivarais","content_url":"https://restaurant.michelin.fr/poi-tooltip/153201/3197456","bookable":true},{"id":"165476","xy":{"geom":"POINT (6.67201 43.62881)","geo_type":"point","lat":"43.628810000000","lon":"6.672010000000","left":"6.672010000000","top":"43.628810000000","right":"6.672010000000","bottom":"43.628810000000","geohash":"spu8py6kjp"},"title":"Le Castellaras","content_url":"https://restaurant.michelin.fr/poi-tooltip/165476/2271121","bookable":true},{"id":"195416","xy":{"geom":"POINT (2.304338 48.8750344)","geo_type":"point","lat":"48.875034400000","lon":"2.304338000000","left":"2.304338000000","top":"48.875034400000","right":"2.304338000000","bottom":"48.875034400000","geohash":"u09wh3mvwyybw"},"title":"Helen","content_url":"https://restaurant.michelin.fr/poi-tooltip/195416/3218926","bookable":true},{"id":"209846","xy":{"geom":"POINT (7.11075 43.56851)","geo_type":"point","lat":"43.568510000000","lon":"7.110750000000","left":"7.110750000000","top":"43.568510000000","right":"7.110750000000","bottom":"43.568510000000","geohash":"sptpcg3uuq"},"title":"La Passagère","content_url":"https://restaurant.michelin.fr/poi-tooltip/209846/3245181","bookable":true},{"id":"231466","xy":{"geom":"POINT (1.094528 49.44098)","geo_type":"point","lat":"49.440980000000","lon":"1.094528000000","left":"1.094528000000","top":"49.440980000000","right":"1.094528000000","bottom":"49.440980000000","geohash":"u0bc2bmn86ej"},"title":"L'Odas","content_url":"https://restaurant.michelin.fr/poi-tooltip/231466/3206206","bookable":true},{"id":"276301","xy":{"geom":"POINT (4.36599 46.6693)","geo_type":"point","lat":"46.669300000000","lon":"4.365990000000","left":"4.365990000000","top":"46.669300000000","right":"4.365990000000","bottom":"46.669300000000","geohash":"u0717rghqu"},"title":"Jérôme Brochot","content_url":"https://restaurant.michelin.fr/poi-tooltip/276301/2572326","bookable":true},{"id":"305607","xy":{"geom":"POINT (2.32346 48.86977)","geo_type":"point","lat":"48.869770000000","lon":"2.323460000000","left":"2.323460000000","top":"48.869770000000","right":"2.323460000000","bottom":"48.869770000000","geohash":"u09whb7zh9"},"title":"Lucas Carton","content_url":"https://restaurant.michelin.fr/poi-tooltip/305607/3217516","bookable":true},{"id":"312727","xy":{"geom":"POINT (2.33839 48.85701)","geo_type":"point","lat":"48.857010000000","lon":"2.338390000000","left":"2.338390000000","top":"48.857010000000","right":"2.338390000000","bottom":"48.857010000000","geohash":"u09tvnnu8q"},"title":"Restaurant Guy Savoy","content_url":"https://restaurant.michelin.fr/poi-tooltip/312727/3287691","bookable":true},{"id":"347187","xy":{"geom":"POINT (-2.01071885 48.62974385)","geo_type":"point","lat":"48.629743850000","lon":"-2.010718850000","left":"-2.010718850000","top":"48.629743850000","right":"-2.010718850000","bottom":"48.629743850000","geohash":"gbwsdhzbfc737q"},"title":"Le St-Placide","content_url":"https://restaurant.michelin.fr/poi-tooltip/347187/3295391","bookable":true},{"id":"360857","xy":{"geom":"POINT (1.49831 43.51519)","geo_type":"point","lat":"43.515190000000","lon":"1.498310000000","left":"1.498310000000","top":"43.515190000000","right":"1.498310000000","bottom":"43.515190000000","geohash":"sp9pd1en35"},"title":"La Table des Merville","content_url":"https://restaurant.michelin.fr/poi-tooltip/360857/3256251","bookable":true},{"id":"366602","xy":{"geom":"POINT (3.41927 46.12468)","geo_type":"point","lat":"46.124680000000","lon":"3.419270000000","left":"3.419270000000","top":"46.124680000000","right":"3.419270000000","bottom":"46.124680000000","geohash":"u04qmu9zdz"},"title":"Maison Decoret","content_url":"https://restaurant.michelin.fr/poi-tooltip/366602/3217261","bookable":true},{"id":"517287","xy":{"geom":"POINT (7.35532 48.07863)","geo_type":"point","lat":"48.078630000000","lon":"7.355320000000","left":"7.355320000000","top":"48.078630000000","right":"7.355320000000","bottom":"48.078630000000","geohash":"u0t1x27yr6"},"title":"Girardin","content_url":"https://restaurant.michelin.fr/poi-tooltip/517287/968356","bookable":true},{"id":"519072","xy":{"geom":"POINT (7.53937 48.95508)","geo_type":"point","lat":"48.955080000000","lon":"7.539370000000","left":"7.539370000000","top":"48.955080000000","right":"7.539370000000","bottom":"48.955080000000","geohash":"u0tqe84000"},"title":"L'Arnsbourg","content_url":"https://restaurant.michelin.fr/poi-tooltip/519072/3219041","bookable":true},{"id":"23221","xy":{"geom":"POINT (7.09429 43.62776)","geo_type":"point","lat":"43.627760000000","lon":"7.094290000000","left":"7.094290000000","top":"43.627760000000","right":"7.094290000000","bottom":"43.627760000000","geohash":"spv01qjyhg"},"title":"Les Terraillers","content_url":"https://restaurant.michelin.fr/poi-tooltip/23221/3041836","bookable":true},{"id":"63446","xy":{"geom":"POINT (2.317853 44.219789)","geo_type":"point","lat":"44.219789000000","lon":"2.317853000000","left":"2.317853000000","top":"44.219789000000","right":"2.317853000000","bottom":"44.219789000000","geohash":"spces9zycyhk"},"title":"Le Sénéchal","content_url":"https://restaurant.michelin.fr/poi-tooltip/63446/3204176","bookable":true},{"id":"70991","xy":{"geom":"POINT (4.98941725 46.2200105)","geo_type":"point","lat":"46.220010500000","lon":"4.989417250000","left":"4.989417250000","top":"46.220010500000","right":"4.989417250000","bottom":"46.220010500000","geohash":"u05wcw15jf7nhg"},"title":"Georges Blanc","content_url":"https://restaurant.michelin.fr/poi-tooltip/70991/3053601","bookable":true},{"id":"86381","xy":{"geom":"POINT (0.34741872 46.55430671)","geo_type":"point","lat":"46.554306710000","lon":"0.347418720000","left":"0.347418720000","top":"46.554306710000","right":"0.347418720000","bottom":"46.554306710000","geohash":"u020zfuyrry0tt"},"title":"Passions et Gourmandises","content_url":"https://restaurant.michelin.fr/poi-tooltip/86381/3236216","bookable":true},{"id":"93131","xy":{"geom":"POINT (4.82016 46.75676)","geo_type":"point","lat":"46.756760000000","lon":"4.820160000000","left":"4.820160000000","top":"46.756760000000","right":"4.820160000000","bottom":"46.756760000000","geohash":"u073vxvcvg"},"title":"L'Amaryllis","content_url":"https://restaurant.michelin.fr/poi-tooltip/93131/3284816","bookable":true},{"id":"115256","xy":{"geom":"POINT (-1.5529122 43.46786397)","geo_type":"point","lat":"43.467863970000","lon":"-1.552912200000","left":"-1.552912200000","top":"43.467863970000","right":"-1.552912200000","bottom":"43.467863970000","geohash":"ezwzk9j4wt0sxd"},"title":"Les Rosiers","content_url":"https://restaurant.michelin.fr/poi-tooltip/115256/3225456","bookable":true},{"id":"128351","xy":{"geom":"POINT (7.27185 43.70148)","geo_type":"point","lat":"43.701480000000","lon":"7.271850000000","left":"7.271850000000","top":"43.701480000000","right":"7.271850000000","bottom":"43.701480000000","geohash":"spv0t7x5w6"},"title":"Flaveur","content_url":"https://restaurant.michelin.fr/poi-tooltip/128351/3303856","bookable":true},{"id":"147951","xy":{"geom":"POINT (2.29472 48.87969)","geo_type":"point","lat":"48.879690000000","lon":"2.294720000000","left":"2.294720000000","top":"48.879690000000","right":"2.294720000000","bottom":"48.879690000000","geohash":"u09wh4qbyf"},"title":"Frédéric Simonin","content_url":"https://restaurant.michelin.fr/poi-tooltip/147951/3303301","bookable":true},{"id":"156931","xy":{"geom":"POINT (2.29328718 48.86379936)","geo_type":"point","lat":"48.863799360000","lon":"2.293287180000","left":"2.293287180000","top":"48.863799360000","right":"2.293287180000","bottom":"48.863799360000","geohash":"u09tupmum2qugw"},"title":"Shang Palace","content_url":"https://restaurant.michelin.fr/poi-tooltip/156931/3161141","bookable":true},{"id":"166506","xy":{"geom":"POINT (1.08624 49.44631)","geo_type":"point","lat":"49.446310000000","lon":"1.086240000000","left":"1.086240000000","top":"49.446310000000","right":"1.086240000000","bottom":"49.446310000000","geohash":"u0bc29qvxh"},"title":"Origine","content_url":"https://restaurant.michelin.fr/poi-tooltip/166506/3213826","bookable":true},{"id":"225636","xy":{"geom":"POINT (5.04123547 47.32090672)","geo_type":"point","lat":"47.320906720000","lon":"5.041235470000","left":"5.041235470000","top":"47.320906720000","right":"5.041235470000","bottom":"47.320906720000","geohash":"u07t4wwbm23egg"},"title":"Loiseau des Ducs","content_url":"https://restaurant.michelin.fr/poi-tooltip/225636/3304086","bookable":true},{"id":"306447","xy":{"geom":"POINT (2.31007 48.86613)","geo_type":"point","lat":"48.866130000000","lon":"2.310070000000","left":"2.310070000000","top":"48.866130000000","right":"2.310070000000","bottom":"48.866130000000","geohash":"u09tuxf1ud"},"title":"Lasserre","content_url":"https://restaurant.michelin.fr/poi-tooltip/306447/3211596","bookable":true},{"id":"317437","xy":{"geom":"POINT (4.43604 45.14247)","geo_type":"point","lat":"45.142470000000","lon":"4.436040000000","left":"4.436040000000","top":"45.142470000000","right":"4.436040000000","bottom":"45.142470000000","geohash":"u050ucyjzn"},"title":"Régis et Jacques Marcon","content_url":"https://restaurant.michelin.fr/poi-tooltip/317437/3209656","bookable":true},{"id":"321477","xy":{"geom":"POINT (3.21722662 43.34253775)","geo_type":"point","lat":"43.342537750000","lon":"3.217226620000","left":"3.217226620000","top":"43.342537750000","right":"3.217226620000","bottom":"43.342537750000","geohash":"spdq94q8wfdh93"},"title":"Octopus","content_url":"https://restaurant.michelin.fr/poi-tooltip/321477/3225421","bookable":true},{"id":"333437","xy":{"geom":"POINT (4.03408 49.25613)","geo_type":"point","lat":"49.256130000000","lon":"4.034080000000","left":"4.034080000000","top":"49.256130000000","right":"4.034080000000","bottom":"49.256130000000","geohash":"u0fb5yc9bb"},"title":"Le Millénaire","content_url":"https://restaurant.michelin.fr/poi-tooltip/333437/3213881","bookable":true},{"id":"362002","xy":{"geom":"POINT (7.40048 43.74509)","geo_type":"point","lat":"43.745090000000","lon":"7.400480000000","left":"7.400480000000","top":"43.745090000000","right":"7.400480000000","bottom":"43.745090000000","geohash":"spv2b7scee"},"title":"Hostellerie Jérôme","content_url":"https://restaurant.michelin.fr/poi-tooltip/362002/3209811","bookable":true},{"id":"370727","xy":{"geom":"POINT (3.67259311 44.91843443)","geo_type":"point","lat":"44.918434430000","lon":"3.672593110000","left":"3.672593110000","top":"44.918434430000","right":"3.672593110000","bottom":"44.918434430000","geohash":"spfxe94kce5fkv"},"title":"Le Haut-Allier","content_url":"https://restaurant.michelin.fr/poi-tooltip/370727/3284361","bookable":true},{"id":"384217","xy":{"geom":"POINT (6.58509 45.29583)","geo_type":"point","lat":"45.295830000000","lon":"6.585090000000","left":"6.585090000000","top":"45.295830000000","right":"6.585090000000","bottom":"45.295830000000","geohash":"u0h9tvg57d"},"title":"Les Explorateurs","content_url":"https://restaurant.michelin.fr/poi-tooltip/384217/3236701","bookable":true},{"id":"6431","xy":{"geom":"POINT (0.64629 45.36076)","geo_type":"point","lat":"45.360760000000","lon":"0.646290000000","left":"0.646290000000","top":"45.360760000000","right":"0.646290000000","bottom":"45.360760000000","geohash":"u006n9wted"},"title":"Le Moulin de l'Abbaye","content_url":"https://restaurant.michelin.fr/poi-tooltip/6431/3208506","bookable":true},{"id":"10671","xy":{"geom":"POINT (2.33633 43.19176)","geo_type":"point","lat":"43.191760000000","lon":"2.336330000000","left":"2.336330000000","top":"43.191760000000","right":"2.336330000000","bottom":"43.191760000000","geohash":"sp9ttnv60r"},"title":"Domaine d'Auriac","content_url":"https://restaurant.michelin.fr/poi-tooltip/10671/2981811","bookable":true},{"id":"12996","xy":{"geom":"POINT (6.01357 44.09345)","geo_type":"point","lat":"44.093450000000","lon":"6.013570000000","left":"6.013570000000","top":"44.093450000000","right":"6.013570000000","bottom":"44.093450000000","geohash":"spu6bffyyq"},"title":"La Bonne Étape","content_url":"https://restaurant.michelin.fr/poi-tooltip/12996/3214111","bookable":true},{"id":"38136","xy":{"geom":"POINT (4.74469651 44.46826845)","geo_type":"point","lat":"44.468268450000","lon":"4.744696510000","left":"4.744696510000","top":"44.468268450000","right":"4.744696510000","bottom":"44.468268450000","geohash":"spgkgznyrqn1u8"},"title":"Le Domaine du Colombier","content_url":"https://restaurant.michelin.fr/poi-tooltip/38136/3303246","bookable":true},{"id":"48746","xy":{"geom":"POINT (0.669 45.2019)","geo_type":"point","lat":"45.201900000000","lon":"0.669000000000","left":"0.669000000000","top":"45.201900000000","right":"0.669000000000","bottom":"45.201900000000","geohash":"u003phz0h"},"title":"Restaurant du Château","content_url":"https://restaurant.michelin.fr/poi-tooltip/48746/3287481","bookable":true},{"id":"96191","xy":{"geom":"POINT (4.83440346 47.02254462)","geo_type":"point","lat":"47.022544620000","lon":"4.834403460000","left":"4.834403460000","top":"47.022544620000","right":"4.834403460000","bottom":"47.022544620000","geohash":"u077w00q1v8kxg"},"title":"Loiseau des Vignes","content_url":"https://restaurant.michelin.fr/poi-tooltip/96191/3304171","bookable":true},{"id":"97561","xy":{"geom":"POINT (-1.58436 43.36783)","geo_type":"point","lat":"43.367830000000","lon":"-1.584360000000","left":"-1.584360000000","top":"43.367830000000","right":"-1.584360000000","bottom":"43.367830000000","geohash":"ezwyeyy7ct"},"title":"L'Auberge Basque","content_url":"https://restaurant.michelin.fr/poi-tooltip/97561/3295431","bookable":true},{"id":"135536","xy":{"geom":"POINT (0.64213 45.77618)","geo_type":"point","lat":"45.776180000000","lon":"0.642130000000","left":"0.642130000000","top":"45.776180000000","right":"0.642130000000","bottom":"45.776180000000","geohash":"u00kqt79dd"},"title":"Dyades au Domaine des Étangs","content_url":"https://restaurant.michelin.fr/poi-tooltip/135536/3205991","bookable":true},{"id":"142646","xy":{"geom":"POINT (5.02465 44.7284219)","geo_type":"point","lat":"44.728421900000","lon":"5.024650000000","left":"5.024650000000","top":"44.728421900000","right":"5.024650000000","bottom":"44.728421900000","geohash":"spgw6qdcfy4te"},"title":"Le Kléber","content_url":"https://restaurant.michelin.fr/poi-tooltip/142646/3262296","bookable":true},{"id":"203186","xy":{"geom":"POINT (1.44375513 43.48600282)","geo_type":"point","lat":"43.486002820000","lon":"1.443755130000","left":"1.443755130000","top":"43.486002820000","right":"1.443755130000","bottom":"43.486002820000","geohash":"sp9p2u7k3fmz53"},"title":"En Marge","content_url":"https://restaurant.michelin.fr/poi-tooltip/203186/3304686","bookable":true},{"id":"217186","xy":{"geom":"POINT (6.85897 48.74602)","geo_type":"point","lat":"48.746020000000","lon":"6.858970000000","left":"6.858970000000","top":"48.746020000000","right":"6.858970000000","bottom":"48.746020000000","geohash":"u0svk1fw1s"},"title":"Chez Michèle","content_url":"https://restaurant.michelin.fr/poi-tooltip/217186/3252841","bookable":true},{"id":"222816","xy":{"geom":"POINT (2.767954 50.6330172)","geo_type":"point","lat":"50.633017200000","lon":"2.767954000000","left":"2.767954000000","top":"50.633017200000","right":"2.767954000000","bottom":"50.633017200000","geohash":"u11bncrwdn807"},"title":"Le Cerisier","content_url":"https://restaurant.michelin.fr/poi-tooltip/222816/3206201","bookable":true},{"id":"228081","xy":{"geom":"POINT (3.032913 50.6397265)","geo_type":"point","lat":"50.639726500000","lon":"3.032913000000","left":"3.032913000000","top":"50.639726500000","right":"3.032913000000","bottom":"50.639726500000","geohash":"u140j48mzcpyg"},"title":"La Laiterie","content_url":"https://restaurant.michelin.fr/poi-tooltip/228081/3213946","bookable":true},{"id":"273381","xy":{"geom":"POINT (1.30312395 45.12638419)","geo_type":"point","lat":"45.126384190000","lon":"1.303123950000","left":"1.303123950000","top":"45.126384190000","right":"1.303123950000","bottom":"45.126384190000","geohash":"u00btxhbhzxxh9"},"title":"L'Imaginaire","content_url":"https://restaurant.michelin.fr/poi-tooltip/273381/3266656","bookable":true},{"id":"312027","xy":{"geom":"POINT (2.2829 48.8744)","geo_type":"point","lat":"48.874400000000","lon":"2.282900000000","left":"2.282900000000","top":"48.874400000000","right":"2.282900000000","bottom":"48.874400000000","geohash":"u09w5cq65"},"title":"Le Pergolèse","content_url":"https://restaurant.michelin.fr/poi-tooltip/312027/3303926","bookable":true},{"id":"318897","xy":{"geom":"POINT (2.31703675 48.85617531)","geo_type":"point","lat":"48.856175310000","lon":"2.317036750000","left":"2.317036750000","top":"48.856175310000","right":"2.317036750000","bottom":"48.856175310000","geohash":"u09tutzpyg5vdr"},"title":"Auguste","content_url":"https://restaurant.michelin.fr/poi-tooltip/318897/3303281","bookable":true},{"id":"356432","xy":{"geom":"POINT (4.8323006 47.0211788)","geo_type":"point","lat":"47.021178800000","lon":"4.832300600000","left":"4.832300600000","top":"47.021178800000","right":"4.832300600000","bottom":"47.021178800000","geohash":"u077mzyy0z03p"},"title":"Le Bénaton","content_url":"https://restaurant.michelin.fr/poi-tooltip/356432/3213851","bookable":true},{"id":"371412","xy":{"geom":"POINT (0.9815 47.41038)","geo_type":"point","lat":"47.410380000000","lon":"0.981500000000","left":"0.981500000000","top":"47.410380000000","right":"0.981500000000","bottom":"47.410380000000","geohash":"u02twqf9qx"},"title":"Château de Pray","content_url":"https://restaurant.michelin.fr/poi-tooltip/371412/3304051","bookable":true},{"id":"22616","xy":{"geom":"POINT (5.48788 47.08917)","geo_type":"point","lat":"47.089170000000","lon":"5.487880000000","left":"5.487880000000","top":"47.089170000000","right":"5.487880000000","bottom":"47.089170000000","geohash":"u07guuk4kc"},"title":"La Chaumière","content_url":"https://restaurant.michelin.fr/poi-tooltip/22616/3238991","bookable":true},{"id":"33266","xy":{"geom":"POINT (5.35220835 43.28039696)","geo_type":"point","lat":"43.280396960000","lon":"5.352208350000","left":"5.352208350000","top":"43.280396960000","right":"5.352208350000","bottom":"43.280396960000","geohash":"spey1ycqe6zb39"},"title":"Le Petit Nice","content_url":"https://restaurant.michelin.fr/poi-tooltip/33266/3304531","bookable":true},{"id":"34446","xy":{"geom":"POINT (3.3299275 45.91949)","geo_type":"point","lat":"45.919490000000","lon":"3.329927500000","left":"3.329927500000","top":"45.919490000000","right":"3.329927500000","bottom":"45.919490000000","geohash":"u04m5z2u2vmgm"},"title":"Le Carrousel","content_url":"https://restaurant.michelin.fr/poi-tooltip/34446/3304446","bookable":true},{"id":"55536","xy":{"geom":"POINT (7.4898204 48.5038684)","geo_type":"point","lat":"48.503868400000","lon":"7.489820400000","left":"7.489820400000","top":"48.503868400000","right":"7.489820400000","bottom":"48.503868400000","geohash":"u0t7fmvgt2qv5"},"title":"Hostellerie du Rosenmeer","content_url":"https://restaurant.michelin.fr/poi-tooltip/55536/3236461","bookable":true},{"id":"56456","xy":{"geom":"POINT (-3.97197786 48.72464857)","geo_type":"point","lat":"48.724648570000","lon":"-3.971977860000","left":"-3.971977860000","top":"48.724648570000","right":"-3.971977860000","bottom":"48.724648570000","geohash":"gbtjjw59whydht"},"title":"Le Brittany","content_url":"https://restaurant.michelin.fr/poi-tooltip/56456/3278136","bookable":true},{"id":"99946","xy":{"geom":"POINT (1.47658687 49.39905437)","geo_type":"point","lat":"49.399054370000","lon":"1.476586870000","left":"1.476586870000","top":"49.399054370000","right":"1.476586870000","bottom":"49.399054370000","geohash":"u0c118g4qgnvrn"},"title":"La Licorne Royale","content_url":"https://restaurant.michelin.fr/poi-tooltip/99946/3021426","bookable":true},{"id":"116191","xy":{"geom":"POINT (-4.49128 48.40437)","geo_type":"point","lat":"48.404370000000","lon":"-4.491280000000","left":"-4.491280000000","top":"48.404370000000","right":"-4.491280000000","bottom":"48.404370000000","geohash":"gbsg3g9xcs"},"title":"Le M","content_url":"https://restaurant.michelin.fr/poi-tooltip/116191/3287506","bookable":true},{"id":"177416","xy":{"geom":"POINT (6.86533 48.05111)","geo_type":"point","lat":"48.051110000000","lon":"6.865330000000","left":"6.865330000000","top":"48.051110000000","right":"6.865330000000","bottom":"48.051110000000","geohash":"u0sck5rnjb"},"title":"Les Bas-Rupts","content_url":"https://restaurant.michelin.fr/poi-tooltip/177416/3206251","bookable":true},{"id":"218551","xy":{"geom":"POINT (2.301 48.86904)","geo_type":"point","lat":"48.869040000000","lon":"2.301000000000","left":"2.301000000000","top":"48.869040000000","right":"2.301000000000","bottom":"48.869040000000","geohash":"u09wh27dc1"},"title":"La Scène","content_url":"https://restaurant.michelin.fr/poi-tooltip/218551/3304116","bookable":true},{"id":"235026","xy":{"geom":"POINT (-0.37125877 49.18285901)","geo_type":"point","lat":"49.182859010000","lon":"-0.371258770000","left":"-0.371258770000","top":"49.182859010000","right":"-0.371258770000","bottom":"49.182859010000","geohash":"gbxxz93wvj3mus"},"title":"Initial","content_url":"https://restaurant.michelin.fr/poi-tooltip/235026/3292191","bookable":true},{"id":"289731","xy":{"geom":"POINT (6.73226 43.59056)","geo_type":"point","lat":"43.590560000000","lon":"6.732260000000","left":"6.732260000000","top":"43.590560000000","right":"6.732260000000","bottom":"43.590560000000","geohash":"spszcpqm3j"},"title":"Faventia","content_url":"https://restaurant.michelin.fr/poi-tooltip/289731/3209631","bookable":true},{"id":"302061","xy":{"geom":"POINT (2.30012373 48.87311836)","geo_type":"point","lat":"48.873118360000","lon":"2.300123730000","left":"2.300123730000","top":"48.873118360000","right":"2.300123730000","bottom":"48.873118360000","geohash":"u09wh34fsc8dcy"},"title":"Pierre Gagnaire","content_url":"https://restaurant.michelin.fr/poi-tooltip/302061/3280931","bookable":true},{"id":"302496","xy":{"geom":"POINT (2.31598 48.86692)","geo_type":"point","lat":"48.866920000000","lon":"2.315980000000","left":"2.315980000000","top":"48.866920000000","right":"2.315980000000","bottom":"48.866920000000","geohash":"u09tuxyqqn"},"title":"Alléno Paris au Pavillon Ledoyen","content_url":"https://restaurant.michelin.fr/poi-tooltip/302496/3299361","bookable":true},{"id":"327807","xy":{"geom":"POINT (6.56614 45.39689)","geo_type":"point","lat":"45.396890000000","lon":"6.566140000000","left":"6.566140000000","top":"45.396890000000","right":"6.566140000000","bottom":"45.396890000000","geohash":"u0hdm2m241"},"title":"L'Ekrin by Laurent Azoulay","content_url":"https://restaurant.michelin.fr/poi-tooltip/327807/3165256","bookable":true},{"id":"331232","xy":{"geom":"POINT (1.17268714 49.30262429)","geo_type":"point","lat":"49.302624290000","lon":"1.172687140000","left":"1.172687140000","top":"49.302624290000","right":"1.172687140000","bottom":"49.302624290000","geohash":"u0bb6xmbte6cth"},"title":"L'Auberge de la Pomme","content_url":"https://restaurant.michelin.fr/poi-tooltip/331232/3239146","bookable":true},{"id":"348582","xy":{"geom":"POINT (1.25829544 45.58682892)","geo_type":"point","lat":"45.586828920000","lon":"1.258295440000","left":"1.258295440000","top":"45.586828920000","right":"1.258295440000","bottom":"45.586828920000","geohash":"u00gkdu682v4fe"},"title":"Le Moulin de la Gorce","content_url":"https://restaurant.michelin.fr/poi-tooltip/348582/3209786","bookable":true},{"id":"366942","xy":{"geom":"POINT (4.81179 45.46004)","geo_type":"point","lat":"45.460040000000","lon":"4.811790000000","left":"4.811790000000","top":"45.460040000000","right":"4.811790000000","bottom":"45.460040000000","geohash":"u056t7xzfv"},"title":"Domaine de Clairefontaine","content_url":"https://restaurant.michelin.fr/poi-tooltip/366942/3268301","bookable":true},{"id":"513912","xy":{"geom":"POINT (7.28287 48.12545)","geo_type":"point","lat":"48.125450000000","lon":"7.282870000000","left":"7.282870000000","top":"48.125450000000","right":"7.282870000000","bottom":"48.125450000000","geohash":"u0t1v8zpp4"},"title":"Julien Binz","content_url":"https://restaurant.michelin.fr/poi-tooltip/513912/2738601","bookable":true},{"id":"12881","xy":{"geom":"POINT (4.75311344 46.90814594)","geo_type":"point","lat":"46.908145940000","lon":"4.753113440000","left":"4.753113440000","top":"46.908145940000","right":"4.753113440000","bottom":"46.908145940000","geohash":"u076u5m5g84mbk"},"title":"Maison Lameloise","content_url":"https://restaurant.michelin.fr/poi-tooltip/12881/3255616","bookable":false},{"id":"16056","xy":{"geom":"POINT (2.39461235 44.59443687)","geo_type":"point","lat":"44.594436870000","lon":"2.394612350000","left":"2.394612350000","top":"44.594436870000","right":"2.394612350000","bottom":"44.594436870000","geohash":"spctwqptqt83sq"},"title":"Hervé Busset","content_url":"https://restaurant.michelin.fr/poi-tooltip/16056/3208541","bookable":true},{"id":"24966","xy":{"geom":"POINT (7.42378263 49.051041)","geo_type":"point","lat":"49.051041000000","lon":"7.423782630000","left":"7.423782630000","top":"49.051041000000","right":"7.423782630000","bottom":"49.051041000000","geohash":"u0tr0cmz48v8c7"},"title":"Le Strasbourg","content_url":"https://restaurant.michelin.fr/poi-tooltip/24966/2412286","bookable":true},{"id":"29741","xy":{"geom":"POINT (2.22709 48.82019)","geo_type":"point","lat":"48.820190000000","lon":"2.227090000000","left":"2.227090000000","top":"48.820190000000","right":"2.227090000000","bottom":"48.820190000000","geohash":"u09tdxmwnz"},"title":"L'Escarbille","content_url":"https://restaurant.michelin.fr/poi-tooltip/29741/3218791","bookable":true},{"id":"31631","xy":{"geom":"POINT (6.46094622 48.56394511)","geo_type":"point","lat":"48.563945110000","lon":"6.460946220000","left":"6.460946220000","top":"48.563945110000","right":"6.460946220000","bottom":"48.563945110000","geohash":"u0ss70b9qzw8tv"},"title":"Château d'Adoménil","content_url":"https://restaurant.michelin.fr/poi-tooltip/31631/1562001","bookable":false},{"id":"61786","xy":{"geom":"POINT (6.60986 43.2596)","geo_type":"point","lat":"43.259600000000","lon":"6.609860000000","left":"6.609860000000","top":"43.259600000000","right":"6.609860000000","bottom":"43.259600000000","geohash":"spswn7jjkv"},"title":"Le Belrose","content_url":"https://restaurant.michelin.fr/poi-tooltip/61786/3208861","bookable":true},{"id":"151481","xy":{"geom":"POINT (4.83373233 44.86152116)","geo_type":"point","lat":"44.861521160000","lon":"4.833732330000","left":"4.833732330000","top":"44.861521160000","right":"4.833732330000","bottom":"44.861521160000","geohash":"spgrjyzc61sj9c"},"title":"Le Carré d'Alethius","content_url":"https://restaurant.michelin.fr/poi-tooltip/151481/3236296","bookable":false},{"id":"163396","xy":{"geom":"POINT (-0.37679096 43.69751137)","geo_type":"point","lat":"43.697511370000","lon":"-0.376790960000","left":"-0.376790960000","top":"43.697511370000","right":"-0.376790960000","bottom":"43.697511370000","geohash":"ezz8x6vskns29m"},"title":"Les Prés d'Eugénie - Michel Guérard","content_url":"https://restaurant.michelin.fr/poi-tooltip/163396/946561","bookable":false},{"id":"176771","xy":{"geom":"POINT (2.32245276 48.83636531)","geo_type":"point","lat":"48.836365310000","lon":"2.322452760000","left":"2.322452760000","top":"48.836365310000","right":"2.322452760000","bottom":"48.836365310000","geohash":"u09tuf7hmn663r"},"title":"Cobéa","content_url":"https://restaurant.michelin.fr/poi-tooltip/176771/2715261","bookable":false},{"id":"225496","xy":{"geom":"POINT (7.30312837 48.28392204)","geo_type":"point","lat":"48.283922040000","lon":"7.303128370000","left":"7.303128370000","top":"48.283922040000","right":"7.303128370000","bottom":"48.283922040000","geohash":"u0t4wjvfpprnn8"},"title":"Auberge Frankenbourg","content_url":"https://restaurant.michelin.fr/poi-tooltip/225496/2977421","bookable":false},{"id":"231616","xy":{"geom":"POINT (5.36915 43.29753)","geo_type":"point","lat":"43.297530000000","lon":"5.369150000000","left":"5.369150000000","top":"43.297530000000","right":"5.369150000000","bottom":"43.297530000000","geohash":"spey64jdqk"},"title":"Alcyone","content_url":"https://restaurant.michelin.fr/poi-tooltip/231616/2484971","bookable":true},{"id":"243281","xy":{"geom":"POINT (4.82528 45.76273)","geo_type":"point","lat":"45.762730000000","lon":"4.825280000000","left":"4.825280000000","top":"45.762730000000","right":"4.825280000000","bottom":"45.762730000000","geohash":"u05kmfcejp"},"title":"Les Terrasses de Lyon","content_url":"https://restaurant.michelin.fr/poi-tooltip/243281/2963231","bookable":false},{"id":"283361","xy":{"geom":"POINT (7.20856 48.04644)","geo_type":"point","lat":"48.046440000000","lon":"7.208560000000","left":"7.208560000000","top":"48.046440000000","right":"7.208560000000","bottom":"48.046440000000","geohash":"u0t1k494g9"},"title":"La Nouvelle Auberge","content_url":"https://restaurant.michelin.fr/poi-tooltip/283361/2981941","bookable":true},{"id":"304282","xy":{"geom":"POINT (2.31460625 48.87162375)","geo_type":"point","lat":"48.871623750000","lon":"2.314606250000","left":"2.314606250000","top":"48.871623750000","right":"2.314606250000","bottom":"48.871623750000","geohash":"u09wh8v3y4zx22"},"title":"Épicure","content_url":"https://restaurant.michelin.fr/poi-tooltip/304282/2068431","bookable":false},{"id":"328157","xy":{"geom":"POINT (2.90554 49.34848)","geo_type":"point","lat":"49.348480000000","lon":"2.905540000000","left":"2.905540000000","top":"49.348480000000","right":"2.905540000000","bottom":"49.348480000000","geohash":"u0f0dpeexz"},"title":"Auberge à la Bonne Idée","content_url":"https://restaurant.michelin.fr/poi-tooltip/328157/3295731","bookable":true},{"id":"332102","xy":{"geom":"POINT (2.54816 48.52867)","geo_type":"point","lat":"48.528670000000","lon":"2.548160000000","left":"2.548160000000","top":"48.528670000000","right":"2.548160000000","bottom":"48.528670000000","geohash":"u09u1frebr"},"title":"L'Inédit","content_url":"https://restaurant.michelin.fr/poi-tooltip/332102/3215461","bookable":false},{"id":"374252","xy":{"geom":"POINT (2.3291229 48.8676961)","geo_type":"point","lat":"48.867696100000","lon":"2.329122900000","left":"2.329122900000","top":"48.867696100000","right":"2.329122900000","bottom":"48.867696100000","geohash":"u09wj004bqzcv"},"title":"Les Jardins de l'Espadon","content_url":"https://restaurant.michelin.fr/poi-tooltip/374252/3302831","bookable":true},{"id":"476132","xy":{"geom":"POINT (2.35322 48.84993)","geo_type":"point","lat":"48.849930000000","lon":"2.353220000000","left":"2.353220000000","top":"48.849930000000","right":"2.353220000000","bottom":"48.849930000000","geohash":"u09tvsce6n"},"title":"Alliance","content_url":"https://restaurant.michelin.fr/poi-tooltip/476132/2748026","bookable":true},{"id":"8241","xy":{"geom":"POINT (6.53898 43.59412)","geo_type":"point","lat":"43.594120000000","lon":"6.538980000000","left":"6.538980000000","top":"43.594120000000","right":"6.538980000000","bottom":"43.594120000000","geohash":"spu8hb1d1k"},"title":"Hostellerie Les Gorges de Pennafort","content_url":"https://restaurant.michelin.fr/poi-tooltip/8241/3222746","bookable":true},{"id":"90506","xy":{"geom":"POINT (-0.52823 44.87826)","geo_type":"point","lat":"44.878260000000","lon":"-0.528230000000","left":"-0.528230000000","top":"44.878260000000","right":"-0.528230000000","bottom":"44.878260000000","geohash":"ezzx7cz6g6"},"title":"Le Prince Noir - Vivien Durand","content_url":"https://restaurant.michelin.fr/poi-tooltip/90506/3239391","bookable":true},{"id":"116966","xy":{"geom":"POINT (4.88809 48.22283)","geo_type":"point","lat":"48.222830000000","lon":"4.888090000000","left":"4.888090000000","top":"48.222830000000","right":"4.888090000000","bottom":"48.222830000000","geohash":"u0e6r4xqkg"},"title":"Hostellerie la Montagne","content_url":"https://restaurant.michelin.fr/poi-tooltip/116966/3212986","bookable":true},{"id":"121446","xy":{"geom":"POINT (4.79280486 43.97181703)","geo_type":"point","lat":"43.971817030000","lon":"4.792804860000","left":"4.792804860000","top":"43.971817030000","right":"4.792804860000","bottom":"43.971817030000","geohash":"spg6jhf42ky3dm"},"title":"Entre Vigne et Garrigue","content_url":"https://restaurant.michelin.fr/poi-tooltip/121446/3205926","bookable":true},{"id":"159466","xy":{"geom":"POINT (2.32577 48.867796)","geo_type":"point","lat":"48.867796000000","lon":"2.325770000000","left":"2.325770000000","top":"48.867796000000","right":"2.325770000000","bottom":"48.867796000000","geohash":"u09whbjed37v"},"title":"Le Baudelaire","content_url":"https://restaurant.michelin.fr/poi-tooltip/159466/3303716","bookable":true},{"id":"223306","xy":{"geom":"POINT (6.49003 43.46603)","geo_type":"point","lat":"43.466030000000","lon":"6.490030000000","left":"6.490030000000","top":"43.466030000000","right":"6.490030000000","bottom":"43.466030000000","geohash":"spsx78tzux"},"title":"Le Relais des Moines","content_url":"https://restaurant.michelin.fr/poi-tooltip/223306/3136336","bookable":true},{"id":"243111","xy":{"geom":"POINT (7.28476848 43.69991333)","geo_type":"point","lat":"43.699913330000","lon":"7.284768480000","left":"7.284768480000","top":"43.699913330000","right":"7.284768480000","bottom":"43.699913330000","geohash":"spv0tg2d7qm0ft"},"title":"JAN","content_url":"https://restaurant.michelin.fr/poi-tooltip/243111/3233661","bookable":true},{"id":"252921","xy":{"geom":"POINT (4.73195 45.78962)","geo_type":"point","lat":"45.789620000000","lon":"4.731950000000","left":"4.731950000000","top":"45.789620000000","right":"4.731950000000","bottom":"45.789620000000","geohash":"u05k7xtxy7"},"title":"La Rotonde","content_url":"https://restaurant.michelin.fr/poi-tooltip/252921/3304701","bookable":true},{"id":"255766","xy":{"geom":"POINT (4.83774 47.02255)","geo_type":"point","lat":"47.022550000000","lon":"4.837740000000","left":"4.837740000000","top":"47.022550000000","right":"4.837740000000","bottom":"47.022550000000","geohash":"u077w04wpw"},"title":"Le Carmin","content_url":"https://restaurant.michelin.fr/poi-tooltip/255766/3236801","bookable":true},{"id":"261576","xy":{"geom":"POINT (5.37357 43.29616)","geo_type":"point","lat":"43.296160000000","lon":"5.373570000000","left":"5.373570000000","top":"43.296160000000","right":"5.373570000000","bottom":"43.296160000000","geohash":"spey63bfmm"},"title":"Une Table au Sud","content_url":"https://restaurant.michelin.fr/poi-tooltip/261576/3236366","bookable":true},{"id":"270876","xy":{"geom":"POINT (2.33888483 48.8652595)","geo_type":"point","lat":"48.865259500000","lon":"2.338884830000","left":"2.338884830000","top":"48.865259500000","right":"2.338884830000","bottom":"48.865259500000","geohash":"u09tvpxhgbwgjc"},"title":"Restaurant du Palais Royal","content_url":"https://restaurant.michelin.fr/poi-tooltip/270876/3303886","bookable":true},{"id":"296671","xy":{"geom":"POINT (2.34999 48.85851)","geo_type":"point","lat":"48.858510000000","lon":"2.349990000000","left":"2.349990000000","top":"48.858510000000","right":"2.349990000000","bottom":"48.858510000000","geohash":"u09tvqrjqw"},"title":"Benoit","content_url":"https://restaurant.michelin.fr/poi-tooltip/296671/3268606","bookable":true},{"id":"324187","xy":{"geom":"POINT (2.18215 48.82186)","geo_type":"point","lat":"48.821860000000","lon":"2.182150000000","left":"2.182150000000","top":"48.821860000000","right":"2.182150000000","bottom":"48.821860000000","geohash":"u09t9xszzy"},"title":"Le Corot","content_url":"https://restaurant.michelin.fr/poi-tooltip/324187/3265531","bookable":true},{"id":"336677","xy":{"geom":"POINT (7.70617 48.31716)","geo_type":"point","lat":"48.317160000000","lon":"7.706170000000","left":"7.706170000000","top":"48.317160000000","right":"7.706170000000","bottom":"48.317160000000","geohash":"u0t6z7g7yg"},"title":"Au Vieux Couvent","content_url":"https://restaurant.michelin.fr/poi-tooltip/336677/3256811","bookable":true},{"id":"348447","xy":{"geom":"POINT (-3.98370636 48.68183455)","geo_type":"point","lat":"48.681834550000","lon":"-3.983706360000","left":"-3.983706360000","top":"48.681834550000","right":"-3.983706360000","bottom":"48.681834550000","geohash":"gbthvq70hztnxd"},"title":"Auberge La Pomme d'Api","content_url":"https://restaurant.michelin.fr/poi-tooltip/348447/3206271","bookable":true},{"id":"352372","xy":{"geom":"POINT (3.29025 48.19883)","geo_type":"point","lat":"48.198830000000","lon":"3.290250000000","left":"3.290250000000","top":"48.198830000000","right":"3.290250000000","bottom":"48.198830000000","geohash":"u0d64y7fs3"},"title":"La Madeleine","content_url":"https://restaurant.michelin.fr/poi-tooltip/352372/2436521","bookable":false},{"id":"358412","xy":{"geom":"POINT (4.90879212 46.56592365)","geo_type":"point","lat":"46.565923650000","lon":"4.908792120000","left":"4.908792120000","top":"46.565923650000","right":"4.908792120000","bottom":"46.565923650000","geohash":"u072ztn6pjkdqm"},"title":"Greuze","content_url":"https://restaurant.michelin.fr/poi-tooltip/358412/3262526","bookable":true},{"id":"385577","xy":{"geom":"POINT (0.077142 49.359345)","geo_type":"point","lat":"49.359345000000","lon":"0.077142000000","left":"0.077142000000","top":"49.359345000000","right":"0.077142000000","bottom":"49.359345000000","geohash":"u0b0cc85j8c1"},"title":"Maximin Hellio","content_url":"https://restaurant.michelin.fr/poi-tooltip/385577/3302906","bookable":true},{"id":"4296","xy":{"geom":"POINT (-4.11928 47.87346)","geo_type":"point","lat":"47.873460000000","lon":"-4.119280000000","left":"-4.119280000000","top":"47.873460000000","right":"-4.119280000000","bottom":"47.873460000000","geohash":"gbt06707jg"},"title":"Les Trois Rochers","content_url":"https://restaurant.michelin.fr/poi-tooltip/4296/3153556","bookable":false},{"id":"4531","xy":{"geom":"POINT (7.33518 43.7066)","geo_type":"point","lat":"43.706600000000","lon":"7.335180000000","left":"7.335180000000","top":"43.706600000000","right":"7.335180000000","bottom":"43.706600000000","geohash":"spv0wut36h"},"title":"Le Restaurant des Rois","content_url":"https://restaurant.michelin.fr/poi-tooltip/4531/3278016","bookable":false},{"id":"38621","xy":{"geom":"POINT (2.31856 48.85034)","geo_type":"point","lat":"48.850340000000","lon":"2.318560000000","left":"2.318560000000","top":"48.850340000000","right":"2.318560000000","bottom":"48.850340000000","geohash":"u09tuubmf7"},"title":"Aida","content_url":"https://restaurant.michelin.fr/poi-tooltip/38621/938076","bookable":false},{"id":"50276","xy":{"geom":"POINT (6.72056105 47.19762669)","geo_type":"point","lat":"47.197626690000","lon":"6.720561050000","left":"6.720561050000","top":"47.197626690000","right":"6.720561050000","bottom":"47.197626690000","geohash":"u0ku8bjf07m9bf"},"title":"L'Étang du Moulin","content_url":"https://restaurant.michelin.fr/poi-tooltip/50276/3299126","bookable":false},{"id":"117596","xy":{"geom":"POINT (-0.55803 47.46591)","geo_type":"point","lat":"47.465910000000","lon":"-0.558030000000","left":"-0.558030000000","top":"47.465910000000","right":"-0.558030000000","bottom":"47.465910000000","geohash":"gbrw52csuy"},"title":"Une Île","content_url":"https://restaurant.michelin.fr/poi-tooltip/117596/2738651","bookable":false},{"id":"148126","xy":{"geom":"POINT (0.70728 44.4055)","geo_type":"point","lat":"44.405500000000","lon":"0.707280000000","left":"0.707280000000","top":"44.405500000000","right":"0.707280000000","bottom":"44.405500000000","geohash":"spbs85g0bc"},"title":"La Table des Sens","content_url":"https://restaurant.michelin.fr/poi-tooltip/148126/3212836","bookable":true},{"id":"177581","xy":{"geom":"POINT (6.122346 45.899758)","geo_type":"point","lat":"45.899758000000","lon":"6.122346000000","left":"6.122346000000","top":"45.899758000000","right":"6.122346000000","bottom":"45.899758000000","geohash":"u0hm57f1mp01"},"title":"L'Esquisse","content_url":"https://restaurant.michelin.fr/poi-tooltip/177581/2856371","bookable":false},{"id":"186526","xy":{"geom":"POINT (2.69717917 48.40506872)","geo_type":"point","lat":"48.405068720000","lon":"2.697179170000","left":"2.697179170000","top":"48.405068720000","right":"2.697179170000","bottom":"48.405068720000","geohash":"u09gm7u5byfd1g"},"title":"L'Axel","content_url":"https://restaurant.michelin.fr/poi-tooltip/186526/3242216","bookable":false},{"id":"189641","xy":{"geom":"POINT (2.36831864 48.85908942)","geo_type":"point","lat":"48.859089420000","lon":"2.368318640000","left":"2.368318640000","top":"48.859089420000","right":"2.368318640000","bottom":"48.859089420000","geohash":"u09tvys8cf6m5f"},"title":"Qui plume la Lune","content_url":"https://restaurant.michelin.fr/poi-tooltip/189641/3255581","bookable":false},{"id":"204956","xy":{"geom":"POINT (2.48020426 49.19418591)","geo_type":"point","lat":"49.194185910000","lon":"2.480204260000","left":"2.480204260000","top":"49.194185910000","right":"2.480204260000","bottom":"49.194185910000","geohash":"u09zb7w0buym6z"},"title":"La Table du Connétable","content_url":"https://restaurant.michelin.fr/poi-tooltip/204956/3296296","bookable":false},{"id":"239001","xy":{"geom":"POINT (5.36532 43.74846)","geo_type":"point","lat":"43.748460000000","lon":"5.365320000000","left":"5.365320000000","top":"43.748460000000","right":"5.365320000000","bottom":"43.748460000000","geohash":"spgbfh4vm0"},"title":"Auberge La Fenière","content_url":"https://restaurant.michelin.fr/poi-tooltip/239001/1562746","bookable":false},{"id":"259251","xy":{"geom":"POINT (4.84882 45.76996)","geo_type":"point","lat":"45.769960000000","lon":"4.848820000000","left":"4.848820000000","top":"45.769960000000","right":"4.848820000000","bottom":"45.769960000000","geohash":"u05kqk4v3d"},"title":"Le Passe Temps","content_url":"https://restaurant.michelin.fr/poi-tooltip/259251/2715526","bookable":false},{"id":"267266","xy":{"geom":"POINT (2.12319 48.8032)","geo_type":"point","lat":"48.803200000000","lon":"2.123190000000","left":"2.123190000000","top":"48.803200000000","right":"2.123190000000","bottom":"48.803200000000","geohash":"u09t8k651z"},"title":"La Table du 11","content_url":"https://restaurant.michelin.fr/poi-tooltip/267266/3278101","bookable":false},{"id":"268471","xy":{"geom":"POINT (4.83232 45.76484)","geo_type":"point","lat":"45.764840000000","lon":"4.832320000000","left":"4.832320000000","top":"45.764840000000","right":"4.832320000000","bottom":"45.764840000000","geohash":"u05kmgnz90"},"title":"Prairial","content_url":"https://restaurant.michelin.fr/poi-tooltip/268471/2788751","bookable":false},{"id":"310657","xy":{"geom":"POINT (3.08886 42.52429)","geo_type":"point","lat":"42.524290000000","lon":"3.088860000000","left":"3.088860000000","top":"42.524290000000","right":"3.088860000000","bottom":"42.524290000000","geohash":"spd1ym31zw"},"title":"La Balette","content_url":"https://restaurant.michelin.fr/poi-tooltip/310657/3148166","bookable":false},{"id":"363537","xy":{"geom":"POINT (5.29201 43.53922)","geo_type":"point","lat":"43.539220000000","lon":"5.292010000000","left":"5.292010000000","top":"43.539220000000","right":"5.292010000000","bottom":"43.539220000000","geohash":"spez8qjd2f"},"title":"Dan B. - La Table de Ventabren","content_url":"https://restaurant.michelin.fr/poi-tooltip/363537/1562656","bookable":false},{"id":"763121","xy":{"geom":"POINT (4.1331487 44.403996)","geo_type":"point","lat":"44.403996000000","lon":"4.133148700000","left":"4.133148700000","top":"44.403996000000","right":"4.133148700000","bottom":"44.403996000000","geohash":"spfuw598j2g19"},"title":"Likoké","content_url":"https://restaurant.michelin.fr/poi-tooltip/763121/2743431","bookable":false},{"id":"766496","xy":{"geom":"POINT (4.6680682 43.56878171)","geo_type":"point","lat":"43.568781710000","lon":"4.668068200000","left":"4.668068200000","top":"43.568781710000","right":"4.668068200000","bottom":"43.568781710000","geohash":"sperf5rntcefmg"},"title":"La Chassagnette","content_url":"https://restaurant.michelin.fr/poi-tooltip/766496/2788761","bookable":false},{"id":"7951","xy":{"geom":"POINT (1.45186 45.19397)","geo_type":"point","lat":"45.193970000000","lon":"1.451860000000","left":"1.451860000000","top":"45.193970000000","right":"1.451860000000","bottom":"45.193970000000","geohash":"u0111531yy"},"title":"Château de Castel Novel","content_url":"https://restaurant.michelin.fr/poi-tooltip/7951/3208516","bookable":true},{"id":"52031","xy":{"geom":"POINT (5.824 46.9994)","geo_type":"point","lat":"46.999400000000","lon":"5.824000000000","left":"5.824000000000","top":"46.999400000000","right":"5.824000000000","bottom":"46.999400000000","geohash":"u0k5kebzm"},"title":"Château de Germigney","content_url":"https://restaurant.michelin.fr/poi-tooltip/52031/3299281","bookable":true},{"id":"64736","xy":{"geom":"POINT (5.20263234 46.17885957)","geo_type":"point","lat":"46.178859570000","lon":"5.202632340000","left":"5.202632340000","top":"46.178859570000","right":"5.202632340000","bottom":"46.178859570000","geohash":"u05wwqs7q57g5p"},"title":"La Marelle","content_url":"https://restaurant.michelin.fr/poi-tooltip/64736/3247966","bookable":true},{"id":"65541","xy":{"geom":"POINT (4.90776 46.56493)","geo_type":"point","lat":"46.564930000000","lon":"4.907760000000","left":"4.907760000000","top":"46.564930000000","right":"4.907760000000","bottom":"46.564930000000","geohash":"u072zsvsrh"},"title":"Quartier Gourmand","content_url":"https://restaurant.michelin.fr/poi-tooltip/65541/3304511","bookable":true},{"id":"66041","xy":{"geom":"POINT (-3.22403231 48.78707462)","geo_type":"point","lat":"48.787074620000","lon":"-3.224032310000","left":"-3.224032310000","top":"48.787074620000","right":"-3.224032310000","bottom":"48.787074620000","geohash":"gbttw9km69gk09"},"title":"Aigue Marine","content_url":"https://restaurant.michelin.fr/poi-tooltip/66041/3218071","bookable":true},{"id":"75856","xy":{"geom":"POINT (-1.86850757 48.6374189)","geo_type":"point","lat":"48.637418900000","lon":"-1.868507570000","left":"-1.868507570000","top":"48.637418900000","right":"-1.868507570000","bottom":"48.637418900000","geohash":"gbwstqpms85bbt"},"title":"Le Coquillage","content_url":"https://restaurant.michelin.fr/poi-tooltip/75856/3205946","bookable":true},{"id":"76086","xy":{"geom":"POINT (7.3762 43.71996)","geo_type":"point","lat":"43.719960000000","lon":"7.376200000000","left":"7.376200000000","top":"43.719960000000","right":"7.376200000000","bottom":"43.719960000000","geohash":"spv0xygpjz"},"title":"La Table de Patrick Raingeard","content_url":"https://restaurant.michelin.fr/poi-tooltip/76086/3068261","bookable":true},{"id":"116836","xy":{"geom":"POINT (4.85698 45.76792)","geo_type":"point","lat":"45.767920000000","lon":"4.856980000000","left":"4.856980000000","top":"45.767920000000","right":"4.856980000000","bottom":"45.767920000000","geohash":"u05kqeb9ry"},"title":"Maison Clovis","content_url":"https://restaurant.michelin.fr/poi-tooltip/116836/3303501","bookable":true},{"id":"141336","xy":{"geom":"POINT (2.06032819 48.4554651)","geo_type":"point","lat":"48.455465100000","lon":"2.060328190000","left":"2.060328190000","top":"48.455465100000","right":"2.060328190000","bottom":"48.455465100000","geohash":"u097wvh391kh1w"},"title":"Le Bouche à Oreille","content_url":"https://restaurant.michelin.fr/poi-tooltip/141336/3303876","bookable":true},{"id":"150411","xy":{"geom":"POINT (5.04413587 47.31641196)","geo_type":"point","lat":"47.316411960000","lon":"5.044135870000","left":"5.044135870000","top":"47.316411960000","right":"5.044135870000","bottom":"47.316411960000","geohash":"u07t4v9n0fkr9f"},"title":"Stéphane Derbord","content_url":"https://restaurant.michelin.fr/poi-tooltip/150411/3225356","bookable":true},{"id":"172821","xy":{"geom":"POINT (2.60701654 42.71814077)","geo_type":"point","lat":"42.718140770000","lon":"2.607016540000","left":"2.607016540000","top":"42.718140770000","right":"2.607016540000","bottom":"42.718140770000","geohash":"sp9g52d75ys7mx"},"title":"La Coopérative","content_url":"https://restaurant.michelin.fr/poi-tooltip/172821/3217236","bookable":true},{"id":"209121","xy":{"geom":"POINT (3.48068842 50.39200632)","geo_type":"point","lat":"50.392006320000","lon":"3.480688420000","left":"3.480688420000","top":"50.392006320000","right":"3.480688420000","bottom":"50.392006320000","geohash":"u0fqxjwd9yv6s9"},"title":"La Grignotière","content_url":"https://restaurant.michelin.fr/poi-tooltip/209121/3242041","bookable":true},{"id":"229396","xy":{"geom":"POINT (6.4754464 46.3738086)","geo_type":"point","lat":"46.373808600000","lon":"6.475446400000","left":"6.475446400000","top":"46.373808600000","right":"6.475446400000","bottom":"46.373808600000","geohash":"u0hxg6570b6z9"},"title":"Raphaël Vionnet","content_url":"https://restaurant.michelin.fr/poi-tooltip/229396/3302986","bookable":true},{"id":"255411","xy":{"geom":"POINT (6.32917 46.25041)","geo_type":"point","lat":"46.250410000000","lon":"6.329170000000","left":"6.329170000000","top":"46.250410000000","right":"6.329170000000","bottom":"46.250410000000","geohash":"u0hx058u0m"},"title":"Le Refuge des Gourmets","content_url":"https://restaurant.michelin.fr/poi-tooltip/255411/3304681","bookable":true},{"id":"330317","xy":{"geom":"POINT (6.31390082 46.3015777)","geo_type":"point","lat":"46.301577700000","lon":"6.313900820000","left":"6.313900820000","top":"46.301577700000","right":"6.313900820000","bottom":"46.301577700000","geohash":"u0hrrsvwhx9tmv"},"title":"Ô Flaveurs","content_url":"https://restaurant.michelin.fr/poi-tooltip/330317/3206256","bookable":true},{"id":"355237","xy":{"geom":"POINT (7.8233 48.66105)","geo_type":"point","lat":"48.661050000000","lon":"7.823300000000","left":"7.823300000000","top":"48.661050000000","right":"7.823300000000","bottom":"48.661050000000","geohash":"u0tsf42z0j"},"title":"Relais de la Poste","content_url":"https://restaurant.michelin.fr/poi-tooltip/355237/3160046","bookable":true},{"id":"360722","xy":{"geom":"POINT (4.849562786816 47.07872537714)","geo_type":"point","lat":"47.078725377140","lon":"4.849562786816","left":"4.849562786816","top":"47.078725377140","right":"4.849562786816","bottom":"47.078725377140","geohash":"u077y67m7n2pgkh7"},"title":"Le Charlemagne","content_url":"https://restaurant.michelin.fr/poi-tooltip/360722/3265431","bookable":true},{"id":"369977","xy":{"geom":"POINT (-1.49901213 43.30768189)","geo_type":"point","lat":"43.307681890000","lon":"-1.499012130000","left":"-1.499012130000","top":"43.307681890000","right":"-1.499012130000","bottom":"43.307681890000","geohash":"ezwymgumw3p932"},"title":"Ithurria","content_url":"https://restaurant.michelin.fr/poi-tooltip/369977/3209841","bookable":true},{"id":"2091","xy":{"geom":"POINT (-0.44461 48.56173)","geo_type":"point","lat":"48.561730000000","lon":"-0.444610000000","left":"-0.444610000000","top":"48.561730000000","right":"-0.444610000000","bottom":"48.561730000000","geohash":"gbxsmbkhxf"},"title":"Le Manoir du Lys","content_url":"https://restaurant.michelin.fr/poi-tooltip/2091/934991","bookable":false},{"id":"9856","xy":{"geom":"POINT (1.39474549 44.49660216)","geo_type":"point","lat":"44.496602160000","lon":"1.394745490000","left":"1.394745490000","top":"44.496602160000","right":"1.394745490000","bottom":"44.496602160000","geohash":"spbvpsre7zvdgt"},"title":"Château de Mercuès","content_url":"https://restaurant.michelin.fr/poi-tooltip/9856/3208521","bookable":false},{"id":"37331","xy":{"geom":"POINT (-3.1462672 47.5300832)","geo_type":"point","lat":"47.530083200000","lon":"-3.146267200000","left":"-3.146267200000","top":"47.530083200000","right":"-3.146267200000","bottom":"47.530083200000","geohash":"gbmy2ksfy9tnh"},"title":"Le Petit Hôtel du Grand Large","content_url":"https://restaurant.michelin.fr/poi-tooltip/37331/937826","bookable":false},{"id":"58686","xy":{"geom":"POINT (7.33019 43.67747)","geo_type":"point","lat":"43.677470000000","lon":"7.330190000000","left":"7.330190000000","top":"43.677470000000","right":"7.330190000000","bottom":"43.677470000000","geohash":"spv0qz1xty"},"title":"Le Cap","content_url":"https://restaurant.michelin.fr/poi-tooltip/58686/3208816","bookable":true},{"id":"60916","xy":{"geom":"POINT (6.63673958 43.26269263)","geo_type":"point","lat":"43.262692630000","lon":"6.636739580000","left":"6.636739580000","top":"43.262692630000","right":"6.636739580000","bottom":"43.262692630000","geohash":"spswp58xrnrtye"},"title":"L'Olivier","content_url":"https://restaurant.michelin.fr/poi-tooltip/60916/2981111","bookable":true},{"id":"68576","xy":{"geom":"POINT (5.85220711 45.67636013)","geo_type":"point","lat":"45.676360130000","lon":"5.852207110000","left":"5.852207110000","top":"45.676360130000","right":"5.852207110000","bottom":"45.676360130000","geohash":"u0h5v5jkn69vkf"},"title":"Lamartine","content_url":"https://restaurant.michelin.fr/poi-tooltip/68576/3277871","bookable":false},{"id":"139336","xy":{"geom":"POINT (6.65675 43.1969)","geo_type":"point","lat":"43.196900000000","lon":"6.656750000000","left":"6.656750000000","top":"43.196900000000","right":"6.656750000000","bottom":"43.196900000000","geohash":"spstxrz21t"},"title":"La Voile","content_url":"https://restaurant.michelin.fr/poi-tooltip/139336/3209206","bookable":false},{"id":"147926","xy":{"geom":"POINT (1.04539 49.8732)","geo_type":"point","lat":"49.873200000000","lon":"1.045390000000","left":"1.045390000000","top":"49.873200000000","right":"1.045390000000","bottom":"49.873200000000","geohash":"u0bexz1hrq"},"title":"Le Colombier","content_url":"https://restaurant.michelin.fr/poi-tooltip/147926/2373696","bookable":false},{"id":"166341","xy":{"geom":"POINT (-0.5221517 48.6474108)","geo_type":"point","lat":"48.647410800000","lon":"-0.522151700000","left":"-0.522151700000","top":"48.647410800000","right":"-0.522151700000","bottom":"48.647410800000","geohash":"gbxsspgz8yxkz"},"title":"Auberge de la Mine","content_url":"https://restaurant.michelin.fr/poi-tooltip/166341/3284251","bookable":false},{"id":"183471","xy":{"geom":"POINT (5.0441166 47.322937)","geo_type":"point","lat":"47.322937000000","lon":"5.044116600000","left":"5.044116600000","top":"47.322937000000","right":"5.044116600000","bottom":"47.322937000000","geohash":"u07t4ych06vfy"},"title":"La Maison des Cariatides","content_url":"https://restaurant.michelin.fr/poi-tooltip/183471/2774241","bookable":false},{"id":"211241","xy":{"geom":"POINT (-1.14783 44.65687)","geo_type":"point","lat":"44.656870000000","lon":"-1.147830000000","left":"-1.147830000000","top":"44.656870000000","right":"-1.147830000000","bottom":"44.656870000000","geohash":"ezznjcs1je"},"title":"Le Patio","content_url":"https://restaurant.michelin.fr/poi-tooltip/211241/2981896","bookable":false},{"id":"214226","xy":{"geom":"POINT (4.0729 46.04017571)","geo_type":"point","lat":"46.040175710000","lon":"4.072900000000","left":"4.072900000000","top":"46.040175710000","right":"4.072900000000","bottom":"46.040175710000","geohash":"u04vutmg3qy3g3"},"title":"Aux Anges","content_url":"https://restaurant.michelin.fr/poi-tooltip/214226/3233236","bookable":true},{"id":"269886","xy":{"geom":"POINT (4.36972474 43.8215619)","geo_type":"point","lat":"43.821561900000","lon":"4.369724740000","left":"4.369724740000","top":"43.821561900000","right":"4.369724740000","bottom":"43.821561900000","geohash":"spg173mzjgnyvt"},"title":"Jérôme Nutile - Le Mas de Boudan","content_url":"https://restaurant.michelin.fr/poi-tooltip/269886/3101051","bookable":false},{"id":"302982","xy":{"geom":"POINT (2.304475 48.866175)","geo_type":"point","lat":"48.866175000000","lon":"2.304475000000","left":"2.304475000000","top":"48.866175000000","right":"2.304475000000","bottom":"48.866175000000","geohash":"u09tury445m0"},"title":"Alain Ducasse au Plaza Athénée","content_url":"https://restaurant.michelin.fr/poi-tooltip/302982/3304601","bookable":true},{"id":"329757","xy":{"geom":"POINT (4.93918135 46.43432486)","geo_type":"point","lat":"46.434324860000","lon":"4.939181350000","left":"4.939181350000","top":"46.434324860000","right":"4.939181350000","bottom":"46.434324860000","geohash":"u0780mhee3891d"},"title":"Le Raisin","content_url":"https://restaurant.michelin.fr/poi-tooltip/329757/1562596","bookable":false},{"id":"330042","xy":{"geom":"POINT (0.91893 46.92076)","geo_type":"point","lat":"46.920760000000","lon":"0.918930000000","left":"0.918930000000","top":"46.920760000000","right":"0.918930000000","bottom":"46.920760000000","geohash":"u02duvtjhx"},"title":"La Promenade","content_url":"https://restaurant.michelin.fr/poi-tooltip/330042/2846211","bookable":false},{"id":"352042","xy":{"geom":"POINT (7.98606 48.79737)","geo_type":"point","lat":"48.797370000000","lon":"7.986060000000","left":"7.986060000000","top":"48.797370000000","right":"7.986060000000","bottom":"48.797370000000","geohash":"u0ttter329"},"title":"Auberge au Boeuf","content_url":"https://restaurant.michelin.fr/poi-tooltip/352042/3262336","bookable":false},{"id":"355932","xy":{"geom":"POINT (4.41669 45.89317)","geo_type":"point","lat":"45.893170000000","lon":"4.416690000000","left":"4.416690000000","top":"45.893170000000","right":"4.416690000000","bottom":"45.893170000000","geohash":"u05jhd85h6"},"title":"Jean Brouilly","content_url":"https://restaurant.michelin.fr/poi-tooltip/355932/2546416","bookable":false},{"id":"742751","xy":{"geom":"POINT (4.85022 45.76985)","geo_type":"point","lat":"45.769850000000","lon":"4.850220000000","left":"4.850220000000","top":"45.769850000000","right":"4.850220000000","bottom":"45.769850000000","geohash":"u05kqk5udq"},"title":"Miraflores","content_url":"https://restaurant.michelin.fr/poi-tooltip/742751/1603296","bookable":false},{"id":"747841","xy":{"geom":"POINT (0.88874394 49.86487)","geo_type":"point","lat":"49.864870000000","lon":"0.888743940000","left":"0.888743940000","top":"49.864870000000","right":"0.888743940000","bottom":"49.864870000000","geohash":"u0besjx5vjrxbm"},"title":"Auberge du Dun","content_url":"https://restaurant.michelin.fr/poi-tooltip/747841/2743961","bookable":false},{"id":"749726","xy":{"geom":"POINT (7.02562 43.54974)","geo_type":"point","lat":"43.549740000000","lon":"7.025620000000","left":"7.025620000000","top":"43.549740000000","right":"7.025620000000","bottom":"43.549740000000","geohash":"spszxzgzsg"},"title":"Le Park 45","content_url":"https://restaurant.michelin.fr/poi-tooltip/749726/1853661","bookable":false},{"id":"753881","xy":{"geom":"POINT (-1.60584 43.4193)","geo_type":"point","lat":"43.419300000000","lon":"-1.605840000000","left":"-1.605840000000","top":"43.419300000000","right":"-1.605840000000","bottom":"43.419300000000","geohash":"ezwz52nxv0"},"title":"Brikéténia","content_url":"https://restaurant.michelin.fr/poi-tooltip/753881/2981861","bookable":false},{"id":"754051","xy":{"geom":"POINT (2.3471498 48.89105)","geo_type":"point","lat":"48.891050000000","lon":"2.347149800000","left":"2.347149800000","top":"48.891050000000","right":"2.347149800000","bottom":"48.891050000000","geohash":"u09wjkm5h839r"},"title":"La Table d'Eugène","content_url":"https://restaurant.michelin.fr/poi-tooltip/754051/2715071","bookable":false},{"id":"754471","xy":{"geom":"POINT (2.70472 50.79294)","geo_type":"point","lat":"50.792940000000","lon":"2.704720000000","left":"2.704720000000","top":"50.792940000000","right":"2.704720000000","bottom":"50.792940000000","geohash":"u11bvw9d2d"},"title":"Auberge du Vert Mont","content_url":"https://restaurant.michelin.fr/poi-tooltip/754471/2774771","bookable":false},{"id":"760576","xy":{"geom":"POINT (3.69268 43.39537)","geo_type":"point","lat":"43.395370000000","lon":"3.692680000000","left":"3.692680000000","top":"43.395370000000","right":"3.692680000000","bottom":"43.395370000000","geohash":"spdwu5bume"},"title":"La Coquerie","content_url":"https://restaurant.michelin.fr/poi-tooltip/760576/3209376","bookable":false},{"id":"763676","xy":{"geom":"POINT (4.872906 46.46472)","geo_type":"point","lat":"46.464720000000","lon":"4.872906000000","left":"4.872906000000","top":"46.464720000000","right":"4.872906000000","bottom":"46.464720000000","geohash":"u072qfskdgw5"},"title":"La Marande","content_url":"https://restaurant.michelin.fr/poi-tooltip/763676/1624221","bookable":false},{"id":"765696","xy":{"geom":"POINT (6.30326 46.79738)","geo_type":"point","lat":"46.797380000000","lon":"6.303260000000","left":"6.303260000000","top":"46.797380000000","right":"6.303260000000","bottom":"46.797380000000","geohash":"u0k6prjykx"},"title":"Le Bon Accueil","content_url":"https://restaurant.michelin.fr/poi-tooltip/765696/3265511","bookable":false},{"id":"767131","xy":{"geom":"POINT (-0.55031 47.46826)","geo_type":"point","lat":"47.468260000000","lon":"-0.550310000000","left":"-0.550310000000","top":"47.468260000000","right":"-0.550310000000","bottom":"47.468260000000","geohash":"gbrw53r68v"},"title":"Le Favre d'Anne","content_url":"https://restaurant.michelin.fr/poi-tooltip/767131/2715586","bookable":false},{"id":"768196","xy":{"geom":"POINT (2.74018 48.00644)","geo_type":"point","lat":"48.006440000000","lon":"2.740180000000","left":"2.740180000000","top":"48.006440000000","right":"2.740180000000","bottom":"48.006440000000","geohash":"u09cn773fc"},"title":"La Gloire","content_url":"https://restaurant.michelin.fr/poi-tooltip/768196/2724991","bookable":false},{"id":"768391","xy":{"geom":"POINT (6.33899 43.14477)","geo_type":"point","lat":"43.144770000000","lon":"6.338990000000","left":"6.338990000000","top":"43.144770000000","right":"6.338990000000","bottom":"43.144770000000","geohash":"spst2nrbt0"},"title":"La Rastègue","content_url":"https://restaurant.michelin.fr/poi-tooltip/768391/1628936","bookable":false},{"id":"774711","xy":{"geom":"POINT (2.13937434 48.86736302)","geo_type":"point","lat":"48.867363020000","lon":"2.139374340000","left":"2.139374340000","top":"48.867363020000","right":"2.139374340000","bottom":"48.867363020000","geohash":"u09w08jc509ph0"},"title":"Le Camélia","content_url":"https://restaurant.michelin.fr/poi-tooltip/774711/1736491","bookable":false},{"id":"775011","xy":{"geom":"POINT (2.09425 48.86734)","geo_type":"point","lat":"48.867340000000","lon":"2.094250000000","left":"2.094250000000","top":"48.867340000000","right":"2.094250000000","bottom":"48.867340000000","geohash":"u09qp8hbzs"},"title":"Le Village","content_url":"https://restaurant.michelin.fr/poi-tooltip/775011/2744001","bookable":false},{"id":"776661","xy":{"geom":"POINT (4.02705 49.2583)","geo_type":"point","lat":"49.258300000000","lon":"4.027050000000","left":"4.027050000000","top":"49.258300000000","right":"4.027050000000","bottom":"49.258300000000","geohash":"u0fb5xhqmh"},"title":"Le Foch","content_url":"https://restaurant.michelin.fr/poi-tooltip/776661/2715966","bookable":false},{"id":"778021","xy":{"geom":"POINT (-0.139089 44.813446)","geo_type":"point","lat":"44.813446000000","lon":"-0.139089000000","left":"-0.139089000000","top":"44.813446000000","right":"-0.139089000000","bottom":"44.813446000000","geohash":"ezzyuy49nzzd"},"title":"Auberge St-Jean","content_url":"https://restaurant.michelin.fr/poi-tooltip/778021/2710071","bookable":false},{"id":"779876","xy":{"geom":"POINT (4.91437 46.5591)","geo_type":"point","lat":"46.559100000000","lon":"4.914370000000","left":"4.914370000000","top":"46.559100000000","right":"4.914370000000","bottom":"46.559100000000","geohash":"u072zgfd3j"},"title":"Aux Terrasses","content_url":"https://restaurant.michelin.fr/poi-tooltip/779876/3295491","bookable":false},{"id":"780796","xy":{"geom":"POINT (2.33588 44.3881)","geo_type":"point","lat":"44.388100000000","lon":"2.335880000000","left":"2.335880000000","top":"44.388100000000","right":"2.335880000000","bottom":"44.388100000000","geohash":"spcst0sgmv"},"title":"Vieux Pont","content_url":"https://restaurant.michelin.fr/poi-tooltip/780796/2285256","bookable":false},{"id":"13831","xy":{"geom":"POINT (-0.0457079 49.18742319)","geo_type":"point","lat":"49.187423190000","lon":"-0.045707900000","left":"-0.045707900000","top":"49.187423190000","right":"-0.045707900000","bottom":"49.187423190000","geohash":"gbxzyfq9wbm8r1"},"title":"Le Pavé d'Auge","content_url":"https://restaurant.michelin.fr/poi-tooltip/13831/3180861","bookable":false},{"id":"17161","xy":{"geom":"POINT (6.58824 43.19161947)","geo_type":"point","lat":"43.191619470000","lon":"6.588240000000","left":"6.588240000000","top":"43.191619470000","right":"6.588240000000","bottom":"43.191619470000","geohash":"spsttyv3mj7vcw"},"title":"La Palmeraie","content_url":"https://restaurant.michelin.fr/poi-tooltip/17161/2450296","bookable":false},{"id":"22656","xy":{"geom":"POINT (3.9076 49.00789)","geo_type":"point","lat":"49.007890000000","lon":"3.907600000000","left":"3.907600000000","top":"49.007890000000","right":"3.907600000000","bottom":"49.007890000000","geohash":"u0dybct7ts"},"title":"Hostellerie La Briqueterie","content_url":"https://restaurant.michelin.fr/poi-tooltip/22656/3295661","bookable":false},{"id":"40751","xy":{"geom":"POINT (4.890958 44.932715)","geo_type":"point","lat":"44.932715000000","lon":"4.890958000000","left":"4.890958000000","top":"44.932715000000","right":"4.890958000000","bottom":"44.932715000000","geohash":"spgrx7c2p94t"},"title":"Flaveurs","content_url":"https://restaurant.michelin.fr/poi-tooltip/40751/3255651","bookable":false},{"id":"111186","xy":{"geom":"POINT (1.21812757 44.88026568)","geo_type":"point","lat":"44.880265680000","lon":"1.218127570000","left":"1.218127570000","top":"44.880265680000","right":"1.218127570000","bottom":"44.880265680000","geohash":"spbz7dpn2rvszy"},"title":"Le Grand Bleu","content_url":"https://restaurant.michelin.fr/poi-tooltip/111186/3209061","bookable":false},{"id":"112731","xy":{"geom":"POINT (-0.35461 49.18435)","geo_type":"point","lat":"49.184350000000","lon":"-0.354610000000","left":"-0.354610000000","top":"49.184350000000","right":"-0.354610000000","bottom":"49.184350000000","geohash":"gbxxzctz8g"},"title":"Stéphane Carbone","content_url":"https://restaurant.michelin.fr/poi-tooltip/112731/2645206","bookable":true},{"id":"145561","xy":{"geom":"POINT (3.89206 43.61675)","geo_type":"point","lat":"43.616750000000","lon":"3.892060000000","left":"3.892060000000","top":"43.616750000000","right":"3.892060000000","bottom":"43.616750000000","geohash":"spfb0s4jgx"},"title":"La Réserve Rimbaud","content_url":"https://restaurant.michelin.fr/poi-tooltip/145561/3245251","bookable":false},{"id":"166731","xy":{"geom":"POINT (2.34801701 48.85153015)","geo_type":"point","lat":"48.851530150000","lon":"2.348017010000","left":"2.348017010000","top":"48.851530150000","right":"2.348017010000","bottom":"48.851530150000","geohash":"u09tvmjubc22k0"},"title":"Sola","content_url":"https://restaurant.michelin.fr/poi-tooltip/166731/3233211","bookable":false},{"id":"218201","xy":{"geom":"POINT (8.98885 42.61555)","geo_type":"point","lat":"42.615550000000","lon":"8.988850000000","left":"8.988850000000","top":"42.615550000000","right":"8.988850000000","bottom":"42.615550000000","geohash":"spw6ktcmx6"},"title":"I Salti","content_url":"https://restaurant.michelin.fr/poi-tooltip/218201/3209466","bookable":false},{"id":"259151","xy":{"geom":"POINT (0.20082838 48.00255622)","geo_type":"point","lat":"48.002556220000","lon":"0.200828380000","left":"0.200828380000","top":"48.002556220000","right":"0.200828380000","bottom":"48.002556220000","geohash":"u081hdd5pth3xb"},"title":"Le Beaulieu","content_url":"https://restaurant.michelin.fr/poi-tooltip/259151/2637036","bookable":false},{"id":"277001","xy":{"geom":"POINT (2.67863154 42.74909308)","geo_type":"point","lat":"42.749093080000","lon":"2.678631540000","left":"2.678631540000","top":"42.749093080000","right":"2.678631540000","bottom":"42.749093080000","geohash":"sp9ghynx88s3nn"},"title":"Auberge du Cellier","content_url":"https://restaurant.michelin.fr/poi-tooltip/277001/2986671","bookable":false},{"id":"318652","xy":{"geom":"POINT (2.48943509 48.91990838)","geo_type":"point","lat":"48.919908380000","lon":"2.489435090000","left":"2.489435090000","top":"48.919908380000","right":"2.489435090000","bottom":"48.919908380000","geohash":"u09y29sg05ck6c"},"title":"Auberge des Saints Pères","content_url":"https://restaurant.michelin.fr/poi-tooltip/318652/956156","bookable":false},{"id":"340982","xy":{"geom":"POINT (7.4447934 43.75223495)","geo_type":"point","lat":"43.752234950000","lon":"7.444793400000","left":"7.444793400000","top":"43.752234950000","right":"7.444793400000","bottom":"43.752234950000","geohash":"spv2ckv5hr8r9c"},"title":"Elsa","content_url":"https://restaurant.michelin.fr/poi-tooltip/340982/3209731","bookable":false},{"id":"345327","xy":{"geom":"POINT (6.15209403 46.1458942)","geo_type":"point","lat":"46.145894200000","lon":"6.152094030000","left":"6.152094030000","top":"46.145894200000","right":"6.152094030000","bottom":"46.145894200000","geohash":"u0hqebxg64jv1m"},"title":"La Ferme de l'Hospital","content_url":"https://restaurant.michelin.fr/poi-tooltip/345327/957646","bookable":false},{"id":"480187","xy":{"geom":"POINT (2.23429 48.88538)","geo_type":"point","lat":"48.885380000000","lon":"2.234290000000","left":"2.234290000000","top":"48.885380000000","right":"2.234290000000","bottom":"48.885380000000","geohash":"u09w4g6cyx"},"title":"L'Escargot 1903","content_url":"https://restaurant.michelin.fr/poi-tooltip/480187/1824581","bookable":false},{"id":"747261","xy":{"geom":"POINT (1.85992 44.86242)","geo_type":"point","lat":"44.862420000000","lon":"1.859920000000","left":"1.859920000000","top":"44.862420000000","right":"1.859920000000","bottom":"44.862420000000","geohash":"spcr4qfqe3"},"title":"Les Trois Soleils de Montal","content_url":"https://restaurant.michelin.fr/poi-tooltip/747261/3208806","bookable":true},{"id":"765086","xy":{"geom":"POINT (0.05275 47.1818)","geo_type":"point","lat":"47.181800000000","lon":"0.052750000000","left":"0.052750000000","top":"47.181800000000","right":"0.052750000000","bottom":"47.181800000000","geohash":"u02h3jnmvh"},"title":"Fontevraud Le Restaurant","content_url":"https://restaurant.michelin.fr/poi-tooltip/765086/3280886","bookable":true},{"id":"781346","xy":{"geom":"POINT (4.69013 45.27315)","geo_type":"point","lat":"45.273150000000","lon":"4.690130000000","left":"4.690130000000","top":"45.273150000000","right":"4.690130000000","bottom":"45.273150000000","geohash":"u053d9xppy"},"title":"Le Domaine Saint Clair by Le W","content_url":"https://restaurant.michelin.fr/poi-tooltip/781346/2077636","bookable":false},{"id":"6441","xy":{"geom":"POINT (-0.50369 44.81431)","geo_type":"point","lat":"44.814310000000","lon":"-0.503690000000","left":"-0.503690000000","top":"44.814310000000","right":"-0.503690000000","bottom":"44.814310000000","geohash":"ezzwuw1nr0"},"title":"Le Saint-James","content_url":"https://restaurant.michelin.fr/poi-tooltip/6441/3287471","bookable":true},{"id":"20581","xy":{"geom":"POINT (5.1861 43.92433)","geo_type":"point","lat":"43.924330000000","lon":"5.186100000000","left":"5.186100000000","top":"43.924330000000","right":"5.186100000000","bottom":"43.924330000000","geohash":"spg9yh0mub"},"title":"Les Bories","content_url":"https://restaurant.michelin.fr/poi-tooltip/20581/936556","bookable":false},{"id":"22266","xy":{"geom":"POINT (3.95509 49.04284)","geo_type":"point","lat":"49.042840000000","lon":"3.955090000000","left":"3.955090000000","top":"49.042840000000","right":"3.955090000000","bottom":"49.042840000000","geohash":"u0dyfpbp0r"},"title":"Les Berceaux","content_url":"https://restaurant.michelin.fr/poi-tooltip/22266/2710651","bookable":true},{"id":"28331","xy":{"geom":"POINT (1.08995 49.93235)","geo_type":"point","lat":"49.932350000000","lon":"1.089950000000","left":"1.089950000000","top":"49.932350000000","right":"1.089950000000","bottom":"49.932350000000","geohash":"u0bu0cctj8"},"title":"Les Voiles d'Or","content_url":"https://restaurant.michelin.fr/poi-tooltip/28331/3265446","bookable":false},{"id":"110821","xy":{"geom":"POINT (3.08035 45.7788)","geo_type":"point","lat":"45.778800000000","lon":"3.080350000000","left":"3.080350000000","top":"45.778800000000","right":"3.080350000000","bottom":"45.778800000000","geohash":"u04hqjg0c6"},"title":"Jean-Claude Leclerc","content_url":"https://restaurant.michelin.fr/poi-tooltip/110821/2770711","bookable":false},{"id":"125536","xy":{"geom":"POINT (9.47633 42.77496194)","geo_type":"point","lat":"42.774961940000","lon":"9.476330000000","left":"9.476330000000","top":"42.774961940000","right":"9.476330000000","bottom":"42.774961940000","geohash":"spwerduqnqzfcr"},"title":"Le Pirate","content_url":"https://restaurant.michelin.fr/poi-tooltip/125536/3209136","bookable":false},{"id":"126516","xy":{"geom":"POINT (-0.15607125 44.89381125)","geo_type":"point","lat":"44.893811250000","lon":"-0.156071250000","left":"-0.156071250000","top":"44.893811250000","right":"-0.156071250000","bottom":"44.893811250000","geohash":"ezzzkkwm7kbz6v"},"title":"Logis de la Cadène","content_url":"https://restaurant.michelin.fr/poi-tooltip/126516/3265716","bookable":false},{"id":"152471","xy":{"geom":"POINT (4.89943 47.3757)","geo_type":"point","lat":"47.375700000000","lon":"4.899430000000","left":"4.899430000000","top":"47.375700000000","right":"4.899430000000","bottom":"47.375700000000","geohash":"u07mx2rxky"},"title":"Auberge de la Charme","content_url":"https://restaurant.michelin.fr/poi-tooltip/152471/3304141","bookable":true},{"id":"169816","xy":{"geom":"POINT (6.626524 49.055836)","geo_type":"point","lat":"49.055836000000","lon":"6.626524000000","left":"6.626524000000","top":"49.055836000000","right":"6.626524000000","bottom":"49.055836000000","geohash":"u0sxnf36cnwk"},"title":"Toya","content_url":"https://restaurant.michelin.fr/poi-tooltip/169816/3209311","bookable":false},{"id":"180476","xy":{"geom":"POINT (6.31603 45.36644)","geo_type":"point","lat":"45.366440000000","lon":"6.316030000000","left":"6.316030000000","top":"45.366440000000","right":"6.316030000000","bottom":"45.366440000000","geohash":"u0h6pdxnwj"},"title":"Le Clocher des Pères","content_url":"https://restaurant.michelin.fr/poi-tooltip/180476/947626","bookable":false},{"id":"198636","xy":{"geom":"POINT (7.75356615 48.58059308)","geo_type":"point","lat":"48.580593080000","lon":"7.753566150000","left":"7.753566150000","top":"48.580593080000","right":"7.753566150000","bottom":"48.580593080000","geohash":"u0ts27vfrnvvww"},"title":"1741","content_url":"https://restaurant.michelin.fr/poi-tooltip/198636/3034631","bookable":true},{"id":"222631","xy":{"geom":"POINT (2.3317881 48.8653474)","geo_type":"point","lat":"48.865347400000","lon":"2.331788100000","left":"2.331788100000","top":"48.865347400000","right":"2.331788100000","bottom":"48.865347400000","geohash":"u09tvp9vq8gpr"},"title":"Jin","content_url":"https://restaurant.michelin.fr/poi-tooltip/222631/3236111","bookable":true},{"id":"239616","xy":{"geom":"POINT (-0.02954 48.73806)","geo_type":"point","lat":"48.738060000000","lon":"-0.029540000000","left":"-0.029540000000","top":"48.738060000000","right":"-0.029540000000","bottom":"48.738060000000","geohash":"gbxvr26rz8"},"title":"La Renaissance","content_url":"https://restaurant.michelin.fr/poi-tooltip/239616/2596356","bookable":false},{"id":"294716","xy":{"geom":"POINT (2.36451 48.85528)","geo_type":"point","lat":"48.855280000000","lon":"2.364510000000","left":"2.364510000000","top":"48.855280000000","right":"2.364510000000","bottom":"48.855280000000","geohash":"u09tvvcf9h"},"title":"L'Ambroisie","content_url":"https://restaurant.michelin.fr/poi-tooltip/294716/3142236","bookable":true},{"id":"323987","xy":{"geom":"POINT (2.1207 48.80999)","geo_type":"point","lat":"48.809990000000","lon":"2.120700000000","left":"2.120700000000","top":"48.809990000000","right":"2.120700000000","bottom":"48.809990000000","geohash":"u09t8m84zc"},"title":"Gordon Ramsay au Trianon","content_url":"https://restaurant.michelin.fr/poi-tooltip/323987/3295671","bookable":false},{"id":"369607","xy":{"geom":"POINT (2.21580447 49.19121982)","geo_type":"point","lat":"49.191219820000","lon":"2.215804470000","left":"2.215804470000","top":"49.191219820000","right":"2.215804470000","bottom":"49.191219820000","geohash":"u09xf6vrxup844"},"title":"La Grange de Belle-Église","content_url":"https://restaurant.michelin.fr/poi-tooltip/369607/2653431","bookable":false},{"id":"770846","xy":{"geom":"POINT (2.27836 48.86174)","geo_type":"point","lat":"48.861740000000","lon":"2.278360000000","left":"2.278360000000","top":"48.861740000000","right":"2.278360000000","bottom":"48.861740000000","geohash":"u09tgz5038"},"title":"L'Archeste","content_url":"https://restaurant.michelin.fr/poi-tooltip/770846/3214011","bookable":true},{"id":"773036","xy":{"geom":"POINT (2.31688 48.85572)","geo_type":"point","lat":"48.855720000000","lon":"2.316880000000","left":"2.316880000000","top":"48.855720000000","right":"2.316880000000","bottom":"48.855720000000","geohash":"u09tutzj5n"},"title":"Arpège","content_url":"https://restaurant.michelin.fr/poi-tooltip/773036/2986461","bookable":true},{"id":"319917","xy":{"geom":"POINT (1.98725 48.70627)","geo_type":"point","lat":"48.706270000000","lon":"1.987250000000","left":"1.987250000000","top":"48.706270000000","right":"1.987250000000","bottom":"48.706270000000","geohash":"u09mj4xnd6"},"title":"La Table des Blot - Auberge du Château","content_url":"https://restaurant.michelin.fr/poi-tooltip/319917/3209666","bookable":false},{"id":"744836","xy":{"geom":"POINT (6.172104 42.99973)","geo_type":"point","lat":"42.999730000000","lon":"6.172104000000","left":"6.172104000000","top":"42.999730000000","right":"6.172104000000","bottom":"42.999730000000","geohash":"spsks7y7s6wk"},"title":"Le Mas du Langoustier","content_url":"https://restaurant.michelin.fr/poi-tooltip/744836/3208666","bookable":false},{"id":"744936","xy":{"geom":"POINT (2.91544 44.6765)","geo_type":"point","lat":"44.676500000000","lon":"2.915440000000","left":"2.915440000000","top":"44.676500000000","right":"2.915440000000","bottom":"44.676500000000","geohash":"spfn4m4gqx"},"title":"Bras","content_url":"https://restaurant.michelin.fr/poi-tooltip/744936/3208686","bookable":false},{"id":"750536","xy":{"geom":"POINT (5.0391216 43.83138)","geo_type":"point","lat":"43.831380000000","lon":"5.039121600000","left":"5.039121600000","top":"43.831380000000","right":"5.039121600000","bottom":"43.831380000000","geohash":"spg96em2k13qh"},"title":"Maison Prévôt","content_url":"https://restaurant.michelin.fr/poi-tooltip/750536/2945526","bookable":false},{"id":"751786","xy":{"geom":"POINT (7.74322 48.5809)","geo_type":"point","lat":"48.580900000000","lon":"7.743220000000","left":"7.743220000000","top":"48.580900000000","right":"7.743220000000","bottom":"48.580900000000","geohash":"u0ts25ykq0"},"title":"Umami","content_url":"https://restaurant.michelin.fr/poi-tooltip/751786/1612331","bookable":false},{"id":"752611","xy":{"geom":"POINT (1.53096 45.15883)","geo_type":"point","lat":"45.158830000000","lon":"1.530960000000","left":"1.530960000000","top":"45.158830000000","right":"1.530960000000","bottom":"45.158830000000","geohash":"u010fufv3b"},"title":"La Table d'Olivier","content_url":"https://restaurant.michelin.fr/poi-tooltip/752611/3295426","bookable":false},{"id":"756606","xy":{"geom":"POINT (5.438775 43.773815)","geo_type":"point","lat":"43.773815000000","lon":"5.438775000000","left":"5.438775000000","top":"43.773815000000","right":"5.438775000000","bottom":"43.773815000000","geohash":"spgc5bb2uws9"},"title":"La Petite Maison de Cucuron","content_url":"https://restaurant.michelin.fr/poi-tooltip/756606/1617151","bookable":false},{"id":"757016","xy":{"geom":"POINT (-2.983628 47.665047)","geo_type":"point","lat":"47.665047000000","lon":"-2.983628000000","left":"-2.983628000000","top":"47.665047000000","right":"-2.983628000000","bottom":"47.665047000000","geohash":"gbmzhj5mh2v8"},"title":"Terre-Mer","content_url":"https://restaurant.michelin.fr/poi-tooltip/757016/3225346","bookable":false},{"id":"758516","xy":{"geom":"POINT (2.29724 48.87294)","geo_type":"point","lat":"48.872940000000","lon":"2.297240000000","left":"2.297240000000","top":"48.872940000000","right":"2.297240000000","bottom":"48.872940000000","geohash":"u09wh30c98"},"title":"L'Atelier de Joël Robuchon - Étoile","content_url":"https://restaurant.michelin.fr/poi-tooltip/758516/1619061","bookable":false},{"id":"760291","xy":{"geom":"POINT (3.55428 43.6519)","geo_type":"point","lat":"43.651900000000","lon":"3.554280000000","left":"3.554280000000","top":"43.651900000000","right":"3.554280000000","bottom":"43.651900000000","geohash":"spf82fs4sx"},"title":"Restaurant de Lauzun","content_url":"https://restaurant.michelin.fr/poi-tooltip/760291/2945541","bookable":false},{"id":"760551","xy":{"geom":"POINT (-3.34745 47.70621)","geo_type":"point","lat":"47.706210000000","lon":"-3.347450000000","left":"-3.347450000000","top":"47.706210000000","right":"-3.347450000000","bottom":"47.706210000000","geohash":"gbmx7udkyf"},"title":"Avel Vor","content_url":"https://restaurant.michelin.fr/poi-tooltip/760551/1621096","bookable":false},{"id":"760956","xy":{"geom":"POINT (1.529241 43.585285)","geo_type":"point","lat":"43.585285000000","lon":"1.529241000000","left":"1.529241000000","top":"43.585285000000","right":"1.529241000000","bottom":"43.585285000000","geohash":"sp9pfy3w9yh8"},"title":"En Pleine Nature","content_url":"https://restaurant.michelin.fr/poi-tooltip/760956/2715296","bookable":false},{"id":"761036","xy":{"geom":"POINT (0.61308 44.20205)","geo_type":"point","lat":"44.202050000000","lon":"0.613080000000","left":"0.613080000000","top":"44.202050000000","right":"0.613080000000","bottom":"44.202050000000","geohash":"spb7mywrtg"},"title":"Mariottat","content_url":"https://restaurant.michelin.fr/poi-tooltip/761036/3265486","bookable":false},{"id":"773001","xy":{"geom":"POINT (2.3412197 48.85513)","geo_type":"point","lat":"48.855130000000","lon":"2.341219700000","left":"2.341219700000","top":"48.855130000000","right":"2.341219700000","bottom":"48.855130000000","geohash":"u09tvmbcf27fn"},"title":"Ze Kitchen Galerie","content_url":"https://restaurant.michelin.fr/poi-tooltip/773001/2419361","bookable":false},{"id":"774026","xy":{"geom":"POINT (-1.03939 45.68269)","geo_type":"point","lat":"45.682690000000","lon":"-1.039390000000","left":"-1.039390000000","top":"45.682690000000","right":"-1.039390000000","bottom":"45.682690000000","geohash":"gbp7bk70uq"},"title":"L'Aquarelle","content_url":"https://restaurant.michelin.fr/poi-tooltip/774026/1634571","bookable":false},{"id":"778631","xy":{"geom":"POINT (2.84027 47.33213)","geo_type":"point","lat":"47.332130000000","lon":"2.840270000000","left":"2.840270000000","top":"47.332130000000","right":"2.840270000000","bottom":"47.332130000000","geohash":"u06j28s1xh"},"title":"La Tour","content_url":"https://restaurant.michelin.fr/poi-tooltip/778631/1639176","bookable":false},{"id":"779946","xy":{"geom":"POINT (6.283541 43.595375)","geo_type":"point","lat":"43.595375000000","lon":"6.283541000000","left":"6.283541000000","top":"43.595375000000","right":"6.283541000000","bottom":"43.595375000000","geohash":"spu2nbr93ngv"},"title":"Les Chênes Verts","content_url":"https://restaurant.michelin.fr/poi-tooltip/779946/2285261","bookable":false},{"id":"780306","xy":{"geom":"POINT (-2.75808 47.65747)","geo_type":"point","lat":"47.657470000000","lon":"-2.758080000000","left":"-2.758080000000","top":"47.657470000000","right":"-2.758080000000","bottom":"47.657470000000","geohash":"gbqp15z8uh"},"title":"Roscanvec","content_url":"https://restaurant.michelin.fr/poi-tooltip/780306/1640851","bookable":false},{"id":"49706","xy":{"geom":"POINT (-4.29898 48.61016)","geo_type":"point","lat":"48.610160000000","lon":"-4.298980000000","left":"-4.298980000000","top":"48.610160000000","right":"-4.298980000000","bottom":"48.610160000000","geohash":"gbsuw1jwdw"},"title":"La Butte","content_url":"https://restaurant.michelin.fr/poi-tooltip/49706/3153901","bookable":true},{"id":"54216","xy":{"geom":"POINT (3.99293 46.0103)","geo_type":"point","lat":"46.010300000000","lon":"3.992930000000","left":"3.992930000000","top":"46.010300000000","right":"3.992930000000","bottom":"46.010300000000","geohash":"u04vdzgt6j"},"title":"TROISGROS","content_url":"https://restaurant.michelin.fr/poi-tooltip/54216/3303706","bookable":true},{"id":"124646","xy":{"geom":"POINT (2.29886 48.86395)","geo_type":"point","lat":"48.863950000000","lon":"2.298860000000","left":"2.298860000000","top":"48.863950000000","right":"2.298860000000","bottom":"48.863950000000","geohash":"u09tur3vpk"},"title":"Antoine","content_url":"https://restaurant.michelin.fr/poi-tooltip/124646/3303696","bookable":true},{"id":"147161","xy":{"geom":"POINT (6.12061 45.00368)","geo_type":"point","lat":"45.003680000000","lon":"6.120610000000","left":"6.120610000000","top":"45.003680000000","right":"6.120610000000","bottom":"45.003680000000","geohash":"u0h2528vkw"},"title":"Le P'tit Polyte","content_url":"https://restaurant.michelin.fr/poi-tooltip/147161/3225496","bookable":true},{"id":"185781","xy":{"geom":"POINT (6.9265495 43.64671817)","geo_type":"point","lat":"43.646718170000","lon":"6.926549500000","left":"6.926549500000","top":"43.646718170000","right":"6.926549500000","bottom":"43.646718170000","geohash":"spubm9eu83cxky"},"title":"La Bastide St-Antoine","content_url":"https://restaurant.michelin.fr/poi-tooltip/185781/3302511","bookable":true},{"id":"215661","xy":{"geom":"POINT (-0.24714083 44.55317844)","geo_type":"point","lat":"44.553178440000","lon":"-0.247140830000","left":"-0.247140830000","top":"44.553178440000","right":"-0.247140830000","bottom":"44.553178440000","geohash":"ezzv6qsj14qmw4"},"title":"Claude Darroze","content_url":"https://restaurant.michelin.fr/poi-tooltip/215661/3287501","bookable":true},{"id":"225096","xy":{"geom":"POINT (4.73084 46.93843)","geo_type":"point","lat":"46.938430000000","lon":"4.730840000000","left":"4.730840000000","top":"46.938430000000","right":"4.730840000000","bottom":"46.938430000000","geohash":"u07758uuht"},"title":"Ed.Em","content_url":"https://restaurant.michelin.fr/poi-tooltip/225096/3228721","bookable":true},{"id":"234066","xy":{"geom":"POINT (-0.97981462 47.61457769)","geo_type":"point","lat":"47.614577690000","lon":"-0.979814620000","left":"-0.979814620000","top":"47.614577690000","right":"-0.979814620000","bottom":"47.614577690000","geohash":"gbrqceyx08t72t"},"title":"Auberge de la Diligence","content_url":"https://restaurant.michelin.fr/poi-tooltip/234066/3233241","bookable":true},{"id":"256001","xy":{"geom":"POINT (2.29919613 48.84528989)","geo_type":"point","lat":"48.845289890000","lon":"2.299196130000","left":"2.299196130000","top":"48.845289890000","right":"2.299196130000","bottom":"48.845289890000","geohash":"u09tuk40rjuzst"},"title":"Neige d'Été","content_url":"https://restaurant.michelin.fr/poi-tooltip/256001/3303056","bookable":true},{"id":"262251","xy":{"geom":"POINT (5.35068 43.28561)","geo_type":"point","lat":"43.285610000000","lon":"5.350680000000","left":"5.350680000000","top":"43.285610000000","right":"5.350680000000","bottom":"43.285610000000","geohash":"spey1zbhzy"},"title":"L'Épuisette","content_url":"https://restaurant.michelin.fr/poi-tooltip/262251/2715556","bookable":false},{"id":"268266","xy":{"geom":"POINT (6.59985181 45.82356532)","geo_type":"point","lat":"45.823565320000","lon":"6.599851810000","left":"6.599851810000","top":"45.823565320000","right":"6.599851810000","bottom":"45.823565320000","geohash":"u0hswjvveewnqp"},"title":"Flocons de Sel","content_url":"https://restaurant.michelin.fr/poi-tooltip/268266/3078376","bookable":false},{"id":"280076","xy":{"geom":"POINT (6.99035932 43.59935)","geo_type":"point","lat":"43.599350000000","lon":"6.990359320000","left":"6.990359320000","top":"43.599350000000","right":"6.990359320000","bottom":"43.599350000000","geohash":"spubp140x5vtq3"},"title":"Le Candille","content_url":"https://restaurant.michelin.fr/poi-tooltip/280076/3296036","bookable":true},{"id":"296846","xy":{"geom":"POINT (2.32803 48.84994)","geo_type":"point","lat":"48.849940000000","lon":"2.328030000000","left":"2.328030000000","top":"48.849940000000","right":"2.328030000000","bottom":"48.849940000000","geohash":"u09tuuz5x0"},"title":"Hélène Darroze","content_url":"https://restaurant.michelin.fr/poi-tooltip/296846/3265746","bookable":false},{"id":"327107","xy":{"geom":"POINT (2.33060545 48.86864818)","geo_type":"point","lat":"48.868648180000","lon":"2.330605450000","left":"2.330605450000","top":"48.868648180000","right":"2.330605450000","bottom":"48.868648180000","geohash":"u09wj030e033k1"},"title":"Pur' - Jean-François Rouquette","content_url":"https://restaurant.michelin.fr/poi-tooltip/327107/3303296","bookable":true},{"id":"344957","xy":{"geom":"POINT (-2.21384441 47.37263339)","geo_type":"point","lat":"47.372633390000","lon":"-2.213844410000","left":"-2.213844410000","top":"47.372633390000","right":"-2.213844410000","bottom":"47.372633390000","geohash":"gbqmmxgvtdvvqy"},"title":"La Mare aux Oiseaux","content_url":"https://restaurant.michelin.fr/poi-tooltip/344957/1592906","bookable":false},{"id":"359552","xy":{"geom":"POINT (1.5248 43.66391)","geo_type":"point","lat":"43.663910000000","lon":"1.524800000000","left":"1.524800000000","top":"43.663910000000","right":"1.524800000000","bottom":"43.663910000000","geohash":"spc06sy2dq"},"title":"Ô Saveurs","content_url":"https://restaurant.michelin.fr/poi-tooltip/359552/3295496","bookable":true},{"id":"388057","xy":{"geom":"POINT (-1.53308 43.44143)","geo_type":"point","lat":"43.441430000000","lon":"-1.533080000000","left":"-1.533080000000","top":"43.441430000000","right":"-1.533080000000","bottom":"43.441430000000","geohash":"ezwzjh78st"},"title":"L'Atelier de Gaztelur","content_url":"https://restaurant.michelin.fr/poi-tooltip/388057/3296196","bookable":false},{"id":"520362","xy":{"geom":"POINT (2.29516278 48.87622444)","geo_type":"point","lat":"48.876224440000","lon":"2.295162780000","left":"2.295162780000","top":"48.876224440000","right":"2.295162780000","bottom":"48.876224440000","geohash":"u09wh1xk9ht7mn"},"title":"La Scène Thélème","content_url":"https://restaurant.michelin.fr/poi-tooltip/520362/3303791","bookable":true},{"id":"2316","xy":{"geom":"POINT (4.60805 45.91755)","geo_type":"point","lat":"45.917550000000","lon":"4.608050000000","left":"4.608050000000","top":"45.917550000000","right":"4.608050000000","bottom":"45.917550000000","geohash":"u05m0z53p7"},"title":"1217","content_url":"https://restaurant.michelin.fr/poi-tooltip/2316/3302786","bookable":true},{"id":"6981","xy":{"geom":"POINT (0.68989 45.39529)","geo_type":"point","lat":"45.395290000000","lon":"0.689890000000","left":"0.689890000000","top":"45.395290000000","right":"0.689890000000","bottom":"45.395290000000","geohash":"u006pxyqex"},"title":"Le Moulin du Roc","content_url":"https://restaurant.michelin.fr/poi-tooltip/6981/3208511","bookable":true},{"id":"7956","xy":{"geom":"POINT (5.75708 43.19661)","geo_type":"point","lat":"43.196610000000","lon":"5.757080000000","left":"5.757080000000","top":"43.196610000000","right":"5.757080000000","bottom":"43.196610000000","geohash":"spsjep8nmx"},"title":"Hostellerie Bérard","content_url":"https://restaurant.michelin.fr/poi-tooltip/7956/3303971","bookable":true},